{
  "type" : "FeatureCollection",
  "features" : [{"type":"Feature","id":1,"geometry":{"type":"Point","coordinates":[-55.775299999622064,49.844999998999874]},"properties":{"OBJECTID":1,"OWNER_E":"Rambler Metals and Mining PLC","FAC_TYPE_E":"(C.)","FAC_DESC_E":"Concentrator","COMMODIT_E":"Cu","COM_DESC_E":"Copper","COM_GROU_E":"Base metals","CITY_E":"Snook’s Arm","PROVINCE_E":"Newfoundland and Labrador","LATITUDE":49.844999999999999,"LONGITUDE":-55.775300000000001}},{"type":"Feature","id":2,"geometry":{"type":"Point","coordinates":[-56.086999999799353,49.914999998886906]},"properties":{"OBJECTID":2,"OWNER_E":"Rambler Metals and Mining Canada Limited","FAC_TYPE_E":"(U.)","FAC_DESC_E":"Underground","COMMODIT_E":"Cu, Au, Ag","COM_DESC_E":"Copper, gold, silver","COM_GROU_E":"Base metals","CITY_E":"Baie Verte","PROVINCE_E":"Newfoundland and Labrador","LATITUDE":49.914999999999999,"LONGITUDE":-56.087000000000003}},{"type":"Feature","id":3,"geometry":{"type":"Point","coordinates":[-62.090854999829475,56.331658999021386]},"properties":{"OBJECTID":3,"OWNER_E":"Vale Newfoundland and Labrador Limited","FAC_TYPE_E":"(P., U., C.)","FAC_DESC_E":"Open-pit, underground, concentrator","COMMODIT_E":"Ni, Cu, Co","COM_DESC_E":"Nickel, copper, cobalt","COM_GROU_E":"Base metals","CITY_E":"Voisey’s Bay","PROVINCE_E":"Newfoundland and Labrador","LATITUDE":56.331659000000002,"LONGITUDE":-62.090854999999998}},{"type":"Feature","id":4,"geometry":{"type":"Point","coordinates":[-66.291699999816259,47.565499998816918]},"properties":{"OBJECTID":4,"OWNER_E":"Trevali Mining Corporation","FAC_TYPE_E":"(P., U., C.)","FAC_DESC_E":"Open-pit, underground, concentrator","COMMODIT_E":"Zn, Pb, Ag, Au","COM_DESC_E":"Zinc, lead, silver, gold","COM_GROU_E":"Base metals","CITY_E":"Bathurst","PROVINCE_E":"New Brunswick","LATITUDE":47.5655,"LONGITUDE":-66.291700000000006}},{"type":"Feature","id":5,"geometry":{"type":"Point","coordinates":[-73.674668999613914,61.687170999425646]},"properties":{"OBJECTID":5,"OWNER_E":"Glencore Canada Corporation","FAC_TYPE_E":"(U., C.)","FAC_DESC_E":"Underground, concentrator","COMMODIT_E":"Ni, PGM, Cu, Co, Au, Ag","COM_DESC_E":"Nickel, platinum group metals, copper, cobalt, gold, silver","COM_GROU_E":"Base metals","CITY_E":"Katinniq","PROVINCE_E":"Quebec","LATITUDE":61.687170999999999,"LONGITUDE":-73.674668999999994}},{"type":"Feature","id":6,"geometry":{"type":"Point","coordinates":[-74.137500000122898,61.42085599935433]},"properties":{"OBJECTID":6,"OWNER_E":"Canadian Royalties Inc.","FAC_TYPE_E":"(P., U., C.)","FAC_DESC_E":"Open-pit, underground, concentrator","COMMODIT_E":"Ni, Cu, PGM, Co","COM_DESC_E":"Nickel, copper, platinum group metals, cobalt","COM_GROU_E":"Base metals","CITY_E":"Kangiqsujuaq","PROVINCE_E":"Quebec","LATITUDE":61.420856000000001,"LONGITUDE":-74.137500000000003}},{"type":"Feature","id":7,"geometry":{"type":"Point","coordinates":[-80.796793000094041,46.657981999077784]},"properties":{"OBJECTID":7,"OWNER_E":"Glencore Canada Corporation","FAC_TYPE_E":"(U.)","FAC_DESC_E":"Underground","COMMODIT_E":"Ni, Cu, Co, PGM, Au","COM_DESC_E":"Nickel, copper, cobalt, platinum group metals, gold","COM_GROU_E":"Base metals","CITY_E":"Sudbury","PROVINCE_E":"Ontario","LATITUDE":46.657981999999997,"LONGITUDE":-80.796792999999994}},{"type":"Feature","id":8,"geometry":{"type":"Point","coordinates":[-80.857000000254033,46.567999999193432]},"properties":{"OBJECTID":8,"OWNER_E":"Vale Canada Limited","FAC_TYPE_E":"(U.)","FAC_DESC_E":"Underground","COMMODIT_E":"Ni, Cu, PGM, Au, Ag, Co, Se, Te","COM_DESC_E":"Nickel, copper, platinum group metals, gold, silver, cobalt, selenium, tellurium","COM_GROU_E":"Base metals","CITY_E":"Sudbury","PROVINCE_E":"Ontario","LATITUDE":46.567999999999998,"LONGITUDE":-80.856999999999999}},{"type":"Feature","id":9,"geometry":{"type":"Point","coordinates":[-81.056782000167246,46.495821998784528]},"properties":{"OBJECTID":9,"OWNER_E":"Vale Canada Limited","FAC_TYPE_E":"(C.)","FAC_DESC_E":"Concentrator","COMMODIT_E":"Ni, Cu, PGM, Au, Ag, Co, Se, Te","COM_DESC_E":"Nickel, copper, platinum group metals, gold, silver, cobalt, selenium, tellurium","COM_GROU_E":"Base metals","CITY_E":"Sudbury","PROVINCE_E":"Ontario","LATITUDE":46.495821999999997,"LONGITUDE":-81.056781999999998}},{"type":"Feature","id":10,"geometry":{"type":"Point","coordinates":[-81.06820499977799,46.491444999220157]},"properties":{"OBJECTID":10,"OWNER_E":"Vale Canada Limited","FAC_TYPE_E":"(U.)","FAC_DESC_E":"Underground","COMMODIT_E":"Ni, Cu, PGM, Au, Ag, Co, Se, Te","COM_DESC_E":"Nickel, copper, platinum group metals, gold, silver, cobalt, selenium, tellurium","COM_GROU_E":"Base metals","CITY_E":"Sudbury","PROVINCE_E":"Ontario","LATITUDE":46.491444999999999,"LONGITUDE":-81.068205000000006}},{"type":"Feature","id":11,"geometry":{"type":"Point","coordinates":[-81.186100000073779,46.473999999082004]},"properties":{"OBJECTID":11,"OWNER_E":"Vale Canada Limited","FAC_TYPE_E":"(U.)","FAC_DESC_E":"Underground","COMMODIT_E":"Ni, Cu, PGM, Au, Ag, Co, Se, Te","COM_DESC_E":"Nickel, copper, platinum group metals, gold, silver, cobalt, selenium, tellurium","COM_GROU_E":"Base metals","CITY_E":"Sudbury","PROVINCE_E":"Ontario","LATITUDE":46.473999999999997,"LONGITUDE":-81.186099999999996}},{"type":"Feature","id":12,"geometry":{"type":"Point","coordinates":[-81.339700000200921,46.677099999297667]},"properties":{"OBJECTID":12,"OWNER_E":"Vale Canada Limited","FAC_TYPE_E":"(U.)","FAC_DESC_E":"Underground","COMMODIT_E":"Ni, Cu, PGM, Au, Ag, Co, Se, Te","COM_DESC_E":"Nickel, copper, platinum group metals, gold, silver, cobalt, selenium, tellurium","COM_GROU_E":"Base metals","CITY_E":"Sudbury","PROVINCE_E":"Ontario","LATITUDE":46.677100000000003,"LONGITUDE":-81.339699999999993}},{"type":"Feature","id":13,"geometry":{"type":"Point","coordinates":[-81.340399999809662,46.663299998764693]},"properties":{"OBJECTID":13,"OWNER_E":"Glencore Canada Corporation","FAC_TYPE_E":"(U.)","FAC_DESC_E":"Underground","COMMODIT_E":"Ni, Cu, PGM, Au, Co, Ag","COM_DESC_E":"Nickel, copper, platinum group metals, gold, cobalt, silver","COM_GROU_E":"Base metals","CITY_E":"Sudbury","PROVINCE_E":"Ontario","LATITUDE":46.6633,"LONGITUDE":-81.340400000000002}},{"type":"Feature","id":14,"geometry":{"type":"Point","coordinates":[-81.342700000449028,46.673399999039709]},"properties":{"OBJECTID":14,"OWNER_E":"Glencore Canada Corporation","FAC_TYPE_E":"(C.)","FAC_DESC_E":"Concentrator","COMMODIT_E":"Ni, Cu, PGM, Au, Ag, Co, Se, Te","COM_DESC_E":"Nickel, copper, platinum group metals, gold, silver, cobalt, selenium, tellurium","COM_GROU_E":"Base metals","CITY_E":"Sudbury","PROVINCE_E":"Ontario","LATITUDE":46.673400000000001,"LONGITUDE":-81.342699999999994}},{"type":"Feature","id":15,"geometry":{"type":"Point","coordinates":[-81.369999999562793,48.689399998800006]},"properties":{"OBJECTID":15,"OWNER_E":"Glencore Canada Corporation","FAC_TYPE_E":"(U., C.)","FAC_DESC_E":"Underground, concentrator","COMMODIT_E":"Cu, Zn, Ag, Se, In","COM_DESC_E":"Copper, zinc, silver, selenium, indium","COM_GROU_E":"Base metals","CITY_E":"Timmins","PROVINCE_E":"Ontario","LATITUDE":48.689399999999999,"LONGITUDE":-81.370000000000005}},{"type":"Feature","id":16,"geometry":{"type":"Point","coordinates":[-81.454838999747736,46.381173998797181]},"properties":{"OBJECTID":16,"OWNER_E":"Vale Canada Limited","FAC_TYPE_E":"(U.)","FAC_DESC_E":"Underground","COMMODIT_E":"Ni, Cu, PGM, Au, Ag, Co","COM_DESC_E":"Nickel, copper, platinum group metals, gold, silver, cobalt","COM_GROU_E":"Base metals","CITY_E":"Worthington","PROVINCE_E":"Ontario","LATITUDE":46.381174000000001,"LONGITUDE":-81.454839000000007}},{"type":"Feature","id":17,"geometry":{"type":"Point","coordinates":[-95.450199999855187,50.429099999067752]},"properties":{"OBJECTID":17,"OWNER_E":"Sinomine Resource Grp Co. Ltd.","FAC_TYPE_E":"(U., C.)","FAC_DESC_E":"Underground, concentrator","COMMODIT_E":"Cs, Li","COM_DESC_E":"Cesium, lithium","COM_GROU_E":"Base metals","CITY_E":"Lac-du-Bonnet","PROVINCE_E":"Manitoba","LATITUDE":50.429099999999998,"LONGITUDE":-95.450199999999995}},{"type":"Feature","id":18,"geometry":{"type":"Point","coordinates":[-97.844400000239162,55.715199999121879]},"properties":{"OBJECTID":18,"OWNER_E":"Vale Canada Limited","FAC_TYPE_E":"(P., U., C.)","FAC_DESC_E":"Open-pit, underground, concentrator","COMMODIT_E":"Ni, Co, Cu, PGM, Au, Ag","COM_DESC_E":"Nickel, cobalt, copper, platinum group metals, gold, silver","COM_GROU_E":"Base metals","CITY_E":"Thompson","PROVINCE_E":"Manitoba","LATITUDE":55.715200000000003,"LONGITUDE":-97.844399999999993}},{"type":"Feature","id":19,"geometry":{"type":"Point","coordinates":[-101.87894299984779,54.774413999364363]},"properties":{"OBJECTID":19,"OWNER_E":"Hudbay Minerals Inc.","FAC_TYPE_E":"(U., C.)","FAC_DESC_E":"Underground, concentrator","COMMODIT_E":"Cu, Zn, Au, Ag","COM_DESC_E":"Copper, zinc, gold, silver","COM_GROU_E":"Base metals","CITY_E":"Flin Flon","PROVINCE_E":"Manitoba","LATITUDE":54.774414,"LONGITUDE":-101.87894300000001}},{"type":"Feature","id":20,"geometry":{"type":"Point","coordinates":[-120.53300000012896,49.330999999303216]},"properties":{"OBJECTID":20,"OWNER_E":"Copper Mountain Mining Corporation","FAC_TYPE_E":"(P., C.)","FAC_DESC_E":"Open-pit, concentrator","COMMODIT_E":"Cu, Au, Ag","COM_DESC_E":"Copper, gold, silver","COM_GROU_E":"Base metals","CITY_E":"Princeton","PROVINCE_E":"British Columbia","LATITUDE":49.331000000000003,"LONGITUDE":-120.533}},{"type":"Feature","id":21,"geometry":{"type":"Point","coordinates":[-121.04830000007709,50.485499998900558]},"properties":{"OBJECTID":21,"OWNER_E":"Teck Resources Limited","FAC_TYPE_E":"(P., C.)","FAC_DESC_E":"Open-pit, concentrator","COMMODIT_E":"Cu, Ag, Mo","COM_DESC_E":"Copper, silver, molybdenum","COM_GROU_E":"Base metals","CITY_E":"Logan Lake","PROVINCE_E":"British Columbia","LATITUDE":50.485500000000002,"LONGITUDE":-121.0483}},{"type":"Feature","id":22,"geometry":{"type":"Point","coordinates":[-121.6339309999625,52.544958998984946]},"properties":{"OBJECTID":22,"OWNER_E":"Imperial Metals Corporation","FAC_TYPE_E":"(P., C.)","FAC_DESC_E":"Open-pit, concentrator","COMMODIT_E":"Au, Cu, Ag","COM_DESC_E":"Gold, copper, silver","COM_GROU_E":"Base metals","CITY_E":"northeast of Williams Lake","PROVINCE_E":"British Columbia","LATITUDE":52.544958999999999,"LONGITUDE":-121.633931}},{"type":"Feature","id":23,"geometry":{"type":"Point","coordinates":[-122.28716000039911,52.528494999207119]},"properties":{"OBJECTID":23,"OWNER_E":"Taseko Mines Limited","FAC_TYPE_E":"(P., C.)","FAC_DESC_E":"Open-pit, concentrator","COMMODIT_E":"Cu, Mo, Ag","COM_DESC_E":"Copper, molybdenum, silver","COM_GROU_E":"Base metals","CITY_E":"north of Williams Lake","PROVINCE_E":"British Columbia","LATITUDE":52.528494999999999,"LONGITUDE":-122.28716}},{"type":"Feature","id":24,"geometry":{"type":"Point","coordinates":[-129.78333000040078,57.699999999362618]},"properties":{"OBJECTID":24,"OWNER_E":"Newcrest Mining Ltd.","FAC_TYPE_E":"(P., C.)","FAC_DESC_E":"Open-pit, concentrator","COMMODIT_E":"Au, Cu, Ag","COM_DESC_E":"Gold, copper, silver","COM_GROU_E":"Base metals","CITY_E":"Kinaskan Lake","PROVINCE_E":"British Columbia","LATITUDE":57.700000000000003,"LONGITUDE":-129.78333000000001}},{"type":"Feature","id":25,"geometry":{"type":"Point","coordinates":[-137.2385800000724,62.618874999061561]},"properties":{"OBJECTID":25,"OWNER_E":"Minto Metals Corporation","FAC_TYPE_E":"(P., U., C.)","FAC_DESC_E":"Open-pit, underground, concentrator","COMMODIT_E":"Cu, Au, Ag","COM_DESC_E":"Copper, gold, silver","COM_GROU_E":"Base metals","CITY_E":"Pelly Crossing","PROVINCE_E":"Yukon","LATITUDE":62.618875000000003,"LONGITUDE":-137.23858000000001}},{"type":"Feature","id":26,"geometry":{"type":"Point","coordinates":[-77.660199999966011,49.684562999001848]},"properties":{"OBJECTID":26,"OWNER_E":"Glencore Canada Corporation","FAC_TYPE_E":"(U., C.)","FAC_DESC_E":"Underground, concentrator","COMMODIT_E":"Zn, Cu, Au, Ag","COM_DESC_E":"Zinc, copper, gold, silver","COM_GROU_E":"Base metals and precious metals","CITY_E":"Matagami","PROVINCE_E":"Quebec","LATITUDE":49.684562999999997,"LONGITUDE":-77.660200000000003}},{"type":"Feature","id":27,"geometry":{"type":"Point","coordinates":[-81.398939999890146,46.638058998968738]},"properties":{"OBJECTID":27,"OWNER_E":"KGHM Polska Miedź S.A.","FAC_TYPE_E":"(U.)","FAC_DESC_E":"Underground","COMMODIT_E":"Cu, Ni, PGM, Au, Ag, Co","COM_DESC_E":"Copper, nickel, platinum group metals, gold, silver,  cobalt","COM_GROU_E":"Base metals and precious metals","CITY_E":"Sudbury","PROVINCE_E":"Ontario","LATITUDE":46.638058999999998,"LONGITUDE":-81.398939999999996}},{"type":"Feature","id":28,"geometry":{"type":"Point","coordinates":[-99.945100000154454,54.856919999326216]},"properties":{"OBJECTID":28,"OWNER_E":"Hudbay Minerals Inc.","FAC_TYPE_E":"(C.)","FAC_DESC_E":"Concentrator","COMMODIT_E":"Au, Zn","COM_DESC_E":"Gold, zinc","COM_GROU_E":"Base metals and precious metals","CITY_E":"Snow Lake","PROVINCE_E":"Manitoba","LATITUDE":54.856920000000002,"LONGITUDE":-99.945099999999996}},{"type":"Feature","id":29,"geometry":{"type":"Point","coordinates":[-100.02400199959236,54.886348999236716]},"properties":{"OBJECTID":29,"OWNER_E":"Hudbay Minerals Inc.","FAC_TYPE_E":"(C.)","FAC_DESC_E":"Concentrator","COMMODIT_E":"Au, Cu","COM_DESC_E":"Gold, copper","COM_GROU_E":"Base metals and precious metals","CITY_E":"Snow Lake","PROVINCE_E":"Manitoba","LATITUDE":54.886349000000003,"LONGITUDE":-100.024002}},{"type":"Feature","id":30,"geometry":{"type":"Point","coordinates":[-100.13332999968716,54.866669998867977]},"properties":{"OBJECTID":30,"OWNER_E":"Hudbay Minerals Inc.","FAC_TYPE_E":"(U.)","FAC_DESC_E":"Underground","COMMODIT_E":"Au, Zn, Cu, Ag","COM_DESC_E":"Gold, zinc, copper, silver","COM_GROU_E":"Base metals and precious metals","CITY_E":"Snow Lake","PROVINCE_E":"Manitoba","LATITUDE":54.866669999999999,"LONGITUDE":-100.13333}},{"type":"Feature","id":31,"geometry":{"type":"Point","coordinates":[-120.51400000035419,50.66099999893413]},"properties":{"OBJECTID":31,"OWNER_E":"New Gold Inc.","FAC_TYPE_E":"(U., C.)","FAC_DESC_E":"Underground, concentrator","COMMODIT_E":"Au, Cu, Ag","COM_DESC_E":"Gold, copper, silver","COM_GROU_E":"Base metals and precious metals","CITY_E":"Kamloops","PROVINCE_E":"British Columbia","LATITUDE":50.661000000000001,"LONGITUDE":-120.514}},{"type":"Feature","id":32,"geometry":{"type":"Point","coordinates":[-124.03100000017506,55.11799999886059]},"properties":{"OBJECTID":32,"OWNER_E":"Centerra Gold Inc.","FAC_TYPE_E":"(P., C.)","FAC_DESC_E":"Open-pit, concentrator","COMMODIT_E":"Cu, Au, Ag","COM_DESC_E":"Copper, gold, silver","COM_GROU_E":"Base metals and precious metals","CITY_E":"Fort St. James","PROVINCE_E":"British Columbia","LATITUDE":55.118000000000002,"LONGITUDE":-124.03100000000001}},{"type":"Feature","id":33,"geometry":{"type":"Point","coordinates":[-125.58999999975541,49.569999998990745]},"properties":{"OBJECTID":33,"OWNER_E":"Trafigura Mining Group","FAC_TYPE_E":"(U.)","FAC_DESC_E":"Underground","COMMODIT_E":"Zn, Cu, Ag, Au, Pb","COM_DESC_E":"Zinc, copper, silver, gold, lead","COM_GROU_E":"Base metals and precious metals","CITY_E":"Strathcona","PROVINCE_E":"British Columbia","LATITUDE":49.57,"LONGITUDE":-125.59}},{"type":"Feature","id":34,"geometry":{"type":"Point","coordinates":[-59.825861000097341,46.178107998770763]},"properties":{"OBJECTID":34,"OWNER_E":"Kameron Collieries ULC","FAC_TYPE_E":"(U.)","FAC_DESC_E":"Underground","COMMODIT_E":"Coal (metallurgical, thermal)","COM_DESC_E":"Coal (metallurgical, thermal)","COM_GROU_E":"Coal","CITY_E":"Cape Breton","PROVINCE_E":"Nova Scotia","LATITUDE":46.178108000000002,"LONGITUDE":-59.825861000000003}},{"type":"Feature","id":35,"geometry":{"type":"Point","coordinates":[-62.682863999604578,45.566073998784766]},"properties":{"OBJECTID":35,"OWNER_E":"Pioneer Coal Ltd.","FAC_TYPE_E":"(P.)","FAC_DESC_E":"Open-pit","COMMODIT_E":"Coal (thermal)","COM_DESC_E":"Coal (thermal)","COM_GROU_E":"Coal","CITY_E":"Stellarton","PROVINCE_E":"Nova Scotia","LATITUDE":45.566074,"LONGITUDE":-62.682864000000002}},{"type":"Feature","id":36,"geometry":{"type":"Point","coordinates":[-102.86495600006744,49.087328999250431]},"properties":{"OBJECTID":36,"OWNER_E":"Westmoreland Coal Company","FAC_TYPE_E":"(P.)","FAC_DESC_E":"Open-pit","COMMODIT_E":"Coal (thermal)","COM_DESC_E":"Coal (thermal)","COM_GROU_E":"Coal","CITY_E":"Bienfait","PROVINCE_E":"Saskatchewan","LATITUDE":49.087328999999997,"LONGITUDE":-102.86495600000001}},{"type":"Feature","id":37,"geometry":{"type":"Point","coordinates":[-105.47258500044678,49.21756599892656]},"properties":{"OBJECTID":37,"OWNER_E":"Westmoreland Coal Company","FAC_TYPE_E":"(P.)","FAC_DESC_E":"Open-pit","COMMODIT_E":"Coal (thermal)","COM_DESC_E":"Coal (thermal)","COM_GROU_E":"Coal","CITY_E":"Coronach","PROVINCE_E":"Saskatchewan","LATITUDE":49.217565999999998,"LONGITUDE":-105.472585}},{"type":"Feature","id":38,"geometry":{"type":"Point","coordinates":[-114.26723600022621,53.323875999267223]},"properties":{"OBJECTID":38,"OWNER_E":"Westmoreland Coal Company","FAC_TYPE_E":"(P.)","FAC_DESC_E":"Open-pit","COMMODIT_E":"Coal (thermal)","COM_DESC_E":"Coal (thermal)","COM_GROU_E":"Coal","CITY_E":"Genesee","PROVINCE_E":"Alberta","LATITUDE":53.323875999999998,"LONGITUDE":-114.267236}},{"type":"Feature","id":39,"geometry":{"type":"Point","coordinates":[-116.78661600009364,53.072795998896964]},"properties":{"OBJECTID":39,"OWNER_E":"Westmoreland Coal Company","FAC_TYPE_E":"(P.)","FAC_DESC_E":"Open-pit","COMMODIT_E":"Coal (thermal)","COM_DESC_E":"Coal (thermal)","COM_GROU_E":"Coal","CITY_E":"Edson","PROVINCE_E":"Alberta","LATITUDE":53.072795999999997,"LONGITUDE":-116.786616}},{"type":"Feature","id":40,"geometry":{"type":"Point","coordinates":[-117.36641999973519,53.403505998938869]},"properties":{"OBJECTID":40,"OWNER_E":"Bighorn Mining Ltd.","FAC_TYPE_E":"(P.)","FAC_DESC_E":"Open-pit","COMMODIT_E":"Coal (thermal)","COM_DESC_E":"Coal (thermal)","COM_GROU_E":"Coal","CITY_E":"Hinton","PROVINCE_E":"Alberta","LATITUDE":53.403506,"LONGITUDE":-117.36642000000001}},{"type":"Feature","id":41,"geometry":{"type":"Point","coordinates":[-114.78330000025549,49.9499999992127]},"properties":{"OBJECTID":41,"OWNER_E":"Teck Resources Limited","FAC_TYPE_E":"(P.)","FAC_DESC_E":"Open-pit","COMMODIT_E":"Coal (metallurgical, thermal)","COM_DESC_E":"Coal (metallurgical, thermal)","COM_GROU_E":"Coal","CITY_E":"Sparwood","PROVINCE_E":"British Columbia","LATITUDE":49.950000000000003,"LONGITUDE":-114.7833}},{"type":"Feature","id":42,"geometry":{"type":"Point","coordinates":[-114.80499999980441,49.743099998911092]},"properties":{"OBJECTID":42,"OWNER_E":"Teck Resources Limited","FAC_TYPE_E":"(P.)","FAC_DESC_E":"Open-pit","COMMODIT_E":"Coal (metallurgical)","COM_DESC_E":"Coal (metallurgical)","COM_GROU_E":"Coal","CITY_E":"Sparwood","PROVINCE_E":"British Columbia","LATITUDE":49.743099999999998,"LONGITUDE":-114.80500000000001}},{"type":"Feature","id":43,"geometry":{"type":"Point","coordinates":[-114.83086200006588,50.19816999924339]},"properties":{"OBJECTID":43,"OWNER_E":"Teck Resources Limited","FAC_TYPE_E":"(P.)","FAC_DESC_E":"Open-pit","COMMODIT_E":"Coal (metallurgical)","COM_DESC_E":"Coal (metallurgical)","COM_GROU_E":"Coal","CITY_E":"Elkford","PROVINCE_E":"British Columbia","LATITUDE":50.198169999999998,"LONGITUDE":-114.830862}},{"type":"Feature","id":44,"geometry":{"type":"Point","coordinates":[-114.87719299981484,50.117857999215275]},"properties":{"OBJECTID":44,"OWNER_E":"Teck Resources Limited","FAC_TYPE_E":"(P.)","FAC_DESC_E":"Open-pit","COMMODIT_E":"Coal (metallurgical)","COM_DESC_E":"Coal (metallurgical)","COM_GROU_E":"Coal","CITY_E":"Sparwood","PROVINCE_E":"British Columbia","LATITUDE":50.117857999999998,"LONGITUDE":-114.87719300000001}},{"type":"Feature","id":45,"geometry":{"type":"Point","coordinates":[-121.2453000002004,55.086099999345812]},"properties":{"OBJECTID":45,"OWNER_E":"Conuma Coal Resources Ltd.","FAC_TYPE_E":"(P., Plant)","FAC_DESC_E":"Open-pit, plant","COMMODIT_E":"Coal (metallurgical)","COM_DESC_E":"Coal (metallurgical)","COM_GROU_E":"Coal","CITY_E":"Tumbler Ridge","PROVINCE_E":"British Columbia","LATITUDE":55.086100000000002,"LONGITUDE":-121.2453}},{"type":"Feature","id":46,"geometry":{"type":"Point","coordinates":[-121.8319999997655,55.397999999350773]},"properties":{"OBJECTID":46,"OWNER_E":"Conuma Coal Resources Ltd.","FAC_TYPE_E":"(P.)","FAC_DESC_E":"Open-pit","COMMODIT_E":"Coal (metallurgical)","COM_DESC_E":"Coal (metallurgical)","COM_GROU_E":"Coal","CITY_E":"Tumbler Ridge","PROVINCE_E":"British Columbia","LATITUDE":55.398000000000003,"LONGITUDE":-121.83199999999999}},{"type":"Feature","id":47,"geometry":{"type":"Point","coordinates":[-122.22219999969779,55.606999999108503]},"properties":{"OBJECTID":47,"OWNER_E":"Conuma Coal Resources Ltd.","FAC_TYPE_E":"(P.)","FAC_DESC_E":"Open-pit","COMMODIT_E":"Coal (metallurgical)","COM_DESC_E":"Coal (metallurgical)","COM_GROU_E":"Coal","CITY_E":"Chetwynd","PROVINCE_E":"British Columbia","LATITUDE":55.606999999999999,"LONGITUDE":-122.2222}},{"type":"Feature","id":48,"geometry":{"type":"Point","coordinates":[-72.190579000434894,52.813912999015436]},"properties":{"OBJECTID":48,"OWNER_E":"Stornoway Diamonds Corporation","FAC_TYPE_E":"(P., U., C.)","FAC_DESC_E":"Open-pit, underground, concentrator","COMMODIT_E":"Diamonds","COM_DESC_E":"Diamonds","COM_GROU_E":"Diamonds","CITY_E":"Mistissini","PROVINCE_E":"Quebec","LATITUDE":52.813912999999999,"LONGITUDE":-72.190579}},{"type":"Feature","id":49,"geometry":{"type":"Point","coordinates":[-109.21193999959085,63.445279999288914]},"properties":{"OBJECTID":49,"OWNER_E":"De Beers Canada Inc.","FAC_TYPE_E":"(P., Plant)","FAC_DESC_E":"Open-pit, plant","COMMODIT_E":"Diamonds","COM_DESC_E":"Diamonds","COM_GROU_E":"Diamonds","CITY_E":"Lac de Gras","PROVINCE_E":"Northwest Territories","LATITUDE":63.445279999999997,"LONGITUDE":-109.21194}},{"type":"Feature","id":50,"geometry":{"type":"Point","coordinates":[-110.27200000039647,64.494999999089899]},"properties":{"OBJECTID":50,"OWNER_E":"Rio Tinto Group","FAC_TYPE_E":"(U., Plant)","FAC_DESC_E":"Underground, plant","COMMODIT_E":"Diamonds","COM_DESC_E":"Diamonds","COM_GROU_E":"Diamonds","CITY_E":"Lac de Gras","PROVINCE_E":"Northwest Territories","LATITUDE":64.495000000000005,"LONGITUDE":-110.27200000000001}},{"type":"Feature","id":51,"geometry":{"type":"Point","coordinates":[-110.61800000026648,64.714999999199719]},"properties":{"OBJECTID":51,"OWNER_E":"Arctic Canadian Diamond Company","FAC_TYPE_E":"(U., Plant)","FAC_DESC_E":"Underground, plant","COMMODIT_E":"Diamonds","COM_DESC_E":"Diamonds","COM_GROU_E":"Diamonds","CITY_E":"Lac de Gras","PROVINCE_E":"Northwest Territories","LATITUDE":64.715000000000003,"LONGITUDE":-110.61799999999999}},{"type":"Feature","id":52,"geometry":{"type":"Point","coordinates":[-52.95440000032945,47.489199999212012]},"properties":{"OBJECTID":52,"OWNER_E":"Trinity Performance Minerals","FAC_TYPE_E":"(P.)","FAC_DESC_E":"Open-pit","COMMODIT_E":"Pyrophyllite","COM_DESC_E":"Pyrophyllite","COM_GROU_E":"Industrial minerals","CITY_E":"Conception Bay South","PROVINCE_E":"Newfoundland and Labrador","LATITUDE":47.489199999999997,"LONGITUDE":-52.9544}},{"type":"Feature","id":53,"geometry":{"type":"Point","coordinates":[-55.40030000004856,46.903799999322679]},"properties":{"OBJECTID":53,"OWNER_E":"Canada Fluorspar (NL) Inc. (subsidiary of Golden Gate Capital)","FAC_TYPE_E":"(P., C.)","FAC_DESC_E":"Open-pit, concentrator","COMMODIT_E":"Fluorspar","COM_DESC_E":"Fluorspar","COM_GROU_E":"Industrial minerals","CITY_E":"St. Lawrence","PROVINCE_E":"Newfoundland and Labrador","LATITUDE":46.903799999999997,"LONGITUDE":-55.400300000000001}},{"type":"Feature","id":54,"geometry":{"type":"Point","coordinates":[-56.868700000220649,48.816899998780457]},"properties":{"OBJECTID":54,"OWNER_E":"BarCan","FAC_TYPE_E":"(P.)","FAC_DESC_E":"Open-pit","COMMODIT_E":"Barite","COM_DESC_E":"Barite","COM_GROU_E":"Industrial minerals","CITY_E":"Buchans","PROVINCE_E":"Newfoundland and Labrador","LATITUDE":48.816899999999997,"LONGITUDE":-56.868699999999997}},{"type":"Feature","id":55,"geometry":{"type":"Point","coordinates":[-60.317334000109533,46.000579999063554]},"properties":{"OBJECTID":55,"OWNER_E":"Nova Scotia Power Inc.","FAC_TYPE_E":"(P.)","FAC_DESC_E":"Open-pit","COMMODIT_E":"Limestone","COM_DESC_E":"Limestone","COM_GROU_E":"Industrial minerals","CITY_E":"Cape Breton","PROVINCE_E":"Nova Scotia","LATITUDE":46.000579999999999,"LONGITUDE":-60.317334000000002}},{"type":"Feature","id":56,"geometry":{"type":"Point","coordinates":[-61.901332000311072,45.656915998816423]},"properties":{"OBJECTID":56,"OWNER_E":"Antigonish Limestone Ltd.","FAC_TYPE_E":"(P.)","FAC_DESC_E":"Open-pit","COMMODIT_E":"Limestone, lime","COM_DESC_E":"Limestone, lime","COM_GROU_E":"Industrial minerals","CITY_E":"Southside Antigonish Harbour","PROVINCE_E":"Nova Scotia","LATITUDE":45.656916000000002,"LONGITUDE":-61.901331999999996}},{"type":"Feature","id":57,"geometry":{"type":"Point","coordinates":[-62.065289999668934,45.599799999303926]},"properties":{"OBJECTID":57,"OWNER_E":"Nova Construction Ltd.","FAC_TYPE_E":"(P.)","FAC_DESC_E":"Open-pit","COMMODIT_E":"Gypsum","COM_DESC_E":"Gypsum","COM_GROU_E":"Industrial minerals","CITY_E":"Antigonish","PROVINCE_E":"Nova Scotia","LATITUDE":45.599800000000002,"LONGITUDE":-62.065289999999997}},{"type":"Feature","id":58,"geometry":{"type":"Point","coordinates":[-62.937170000272239,45.134514999356938]},"properties":{"OBJECTID":58,"OWNER_E":"Mosher Limestone Company Limited","FAC_TYPE_E":"(P.)","FAC_DESC_E":"Open-pit","COMMODIT_E":"Limestone, dolomite","COM_DESC_E":"Limestone, dolomite","COM_GROU_E":"Industrial minerals","CITY_E":"Upper Musquodoboit","PROVINCE_E":"Nova Scotia","LATITUDE":45.134515,"LONGITUDE":-62.937170000000002}},{"type":"Feature","id":59,"geometry":{"type":"Point","coordinates":[-63.335200000088577,45.23989999918917]},"properties":{"OBJECTID":59,"OWNER_E":"Lafarge Canada Inc.","FAC_TYPE_E":"(P., Plant)","FAC_DESC_E":"Open-pit, plant","COMMODIT_E":"Limestone","COM_DESC_E":"Limestone","COM_GROU_E":"Industrial minerals","CITY_E":"Brookfield","PROVINCE_E":"Nova Scotia","LATITUDE":45.239899999999999,"LONGITUDE":-63.3352}},{"type":"Feature","id":60,"geometry":{"type":"Point","coordinates":[-63.42240000011396,45.011599998841014]},"properties":{"OBJECTID":60,"OWNER_E":"National Gypsum (Canada) Ltd.","FAC_TYPE_E":"(P.)","FAC_DESC_E":"Open-pit","COMMODIT_E":"Gypsum","COM_DESC_E":"Gypsum","COM_GROU_E":"Industrial minerals","CITY_E":"Milford","PROVINCE_E":"Nova Scotia","LATITUDE":45.011600000000001,"LONGITUDE":-63.422400000000003}},{"type":"Feature","id":61,"geometry":{"type":"Point","coordinates":[-63.654914000272903,45.843818999129233]},"properties":{"OBJECTID":61,"OWNER_E":"K+S Windsor Salt Ltd.","FAC_TYPE_E":"(U.)","FAC_DESC_E":"Underground","COMMODIT_E":"Salt","COM_DESC_E":"Salt","COM_GROU_E":"Industrial minerals","CITY_E":"Pugwash","PROVINCE_E":"Nova Scotia","LATITUDE":45.843819000000003,"LONGITUDE":-63.654913999999998}},{"type":"Feature","id":62,"geometry":{"type":"Point","coordinates":[-64.233900000304928,45.782899998879536]},"properties":{"OBJECTID":62,"OWNER_E":"Compass Minerals Canada Corporation","FAC_TYPE_E":"(Solution mining)","FAC_DESC_E":"Soultion mining","COMMODIT_E":"Salt","COM_DESC_E":"Salt","COM_GROU_E":"Industrial minerals","CITY_E":"Amherst","PROVINCE_E":"Nova Scotia","LATITUDE":45.782899999999998,"LONGITUDE":-64.233900000000006}},{"type":"Feature","id":63,"geometry":{"type":"Point","coordinates":[-65.307320000239216,45.998029998780943]},"properties":{"OBJECTID":63,"OWNER_E":"Graymont Inc.","FAC_TYPE_E":"(P., Plant)","FAC_DESC_E":"Open-pit, plant","COMMODIT_E":"Limestone, lime","COM_DESC_E":"Limestone, lime","COM_GROU_E":"Industrial minerals","CITY_E":"Havelock","PROVINCE_E":"New Brunswick","LATITUDE":45.99803,"LONGITUDE":-65.307320000000004}},{"type":"Feature","id":64,"geometry":{"type":"Point","coordinates":[-65.371900000100624,46.00209999928304]},"properties":{"OBJECTID":64,"OWNER_E":"Graymont Inc.","FAC_TYPE_E":"(P.)","FAC_DESC_E":"Open-pit","COMMODIT_E":"Limestone, lime","COM_DESC_E":"Limestone, lime","COM_GROU_E":"Industrial minerals","CITY_E":"Havelock","PROVINCE_E":"New Brunswick","LATITUDE":46.002099999999999,"LONGITUDE":-65.371899999999997}},{"type":"Feature","id":65,"geometry":{"type":"Point","coordinates":[-65.416199999722039,45.751499998896804]},"properties":{"OBJECTID":65,"OWNER_E":"Nutrien Ltd.","FAC_TYPE_E":"(U.)","FAC_DESC_E":"Underground","COMMODIT_E":"Salt","COM_DESC_E":"Salt","COM_GROU_E":"Industrial minerals","CITY_E":"Sussex","PROVINCE_E":"New Brunswick","LATITUDE":45.7515,"LONGITUDE":-65.416200000000003}},{"type":"Feature","id":66,"geometry":{"type":"Point","coordinates":[-65.631269999857608,45.48333999908985]},"properties":{"OBJECTID":66,"OWNER_E":"Hammond River Holdings Ltd.","FAC_TYPE_E":"(P.)","FAC_DESC_E":"Open-pit","COMMODIT_E":"Gypsum","COM_DESC_E":"Gypsum","COM_GROU_E":"Industrial minerals","CITY_E":"Upham","PROVINCE_E":"New Brunswick","LATITUDE":45.483339999999998,"LONGITUDE":-65.631270000000001}},{"type":"Feature","id":67,"geometry":{"type":"Point","coordinates":[-66.0218000004011,45.338399998921879]},"properties":{"OBJECTID":67,"OWNER_E":"Brookville Manufacturing Company","FAC_TYPE_E":"(P., Plant)","FAC_DESC_E":"Open-pit, plant","COMMODIT_E":"Dolomitic lime","COM_DESC_E":"Dolomitic lime","COM_GROU_E":"Industrial minerals","CITY_E":"Saint John","PROVINCE_E":"New Brunswick","LATITUDE":45.3384,"LONGITUDE":-66.021799999999999}},{"type":"Feature","id":68,"geometry":{"type":"Point","coordinates":[-66.040299999685374,47.651099999122302]},"properties":{"OBJECTID":68,"OWNER_E":"Elmtree Resources Ltd.","FAC_TYPE_E":"(P., Plant)","FAC_DESC_E":"Open-pit, plant","COMMODIT_E":"Limestone","COM_DESC_E":"Limestone","COM_GROU_E":"Industrial minerals","CITY_E":"Sormany","PROVINCE_E":"New Brunswick","LATITUDE":47.6511,"LONGITUDE":-66.040300000000002}},{"type":"Feature","id":69,"geometry":{"type":"Point","coordinates":[-61.56079999976145,47.612199999190544]},"properties":{"OBJECTID":69,"OWNER_E":"Stone Canyon Industries Holding","FAC_TYPE_E":"(U.)","FAC_DESC_E":"Underground","COMMODIT_E":"Salt","COM_DESC_E":"Salt","COM_GROU_E":"Industrial minerals","CITY_E":"Îles-de-la-Madeleine","PROVINCE_E":"Quebec","LATITUDE":47.612200000000001,"LONGITUDE":-61.5608}},{"type":"Feature","id":70,"geometry":{"type":"Point","coordinates":[-64.918671999860351,48.186868998875376]},"properties":{"OBJECTID":70,"OWNER_E":"St Marys Cement","FAC_TYPE_E":"(P., Plant)","FAC_DESC_E":"Open-pit, plant","COMMODIT_E":"Limestone","COM_DESC_E":"Limestone","COM_GROU_E":"Industrial minerals","CITY_E":"Port-Daniel–Gascons","PROVINCE_E":"Quebec","LATITUDE":48.186869000000002,"LONGITUDE":-64.918672000000001}},{"type":"Feature","id":71,"geometry":{"type":"Point","coordinates":[-65.359186999978931,49.059690998873464]},"properties":{"OBJECTID":71,"OWNER_E":"Ressources minérales Pélican Inc.","FAC_TYPE_E":"(P.)","FAC_DESC_E":"Open-pit","COMMODIT_E":"Limestone","COM_DESC_E":"Limestone","COM_GROU_E":"Industrial minerals","CITY_E":"Grande-Vallée","PROVINCE_E":"Quebec","LATITUDE":49.059691000000001,"LONGITUDE":-65.359187000000006}},{"type":"Feature","id":72,"geometry":{"type":"Point","coordinates":[-69.392500000249413,47.835999998762738]},"properties":{"OBJECTID":72,"OWNER_E":"Le Groupe Berger Ltée","FAC_TYPE_E":"(P.)","FAC_DESC_E":"Open-pit","COMMODIT_E":"Vermiculite, perlite","COM_DESC_E":"Vermiculite, perlite","COM_GROU_E":"Industrial minerals","CITY_E":"Saint-Modeste","PROVINCE_E":"Quebec","LATITUDE":47.835999999999999,"LONGITUDE":-69.392499999999998}},{"type":"Feature","id":73,"geometry":{"type":"Point","coordinates":[-70.656390000081331,47.765442999303218]},"properties":{"OBJECTID":73,"OWNER_E":"Sitec Amérique du Nord inc.","FAC_TYPE_E":"(P.)","FAC_DESC_E":"Open-pit","COMMODIT_E":"Silica","COM_DESC_E":"Silica","COM_GROU_E":"Industrial minerals","CITY_E":"Saint-Urbain","PROVINCE_E":"Quebec","LATITUDE":47.765442999999998,"LONGITUDE":-70.656390000000002}},{"type":"Feature","id":74,"geometry":{"type":"Point","coordinates":[-71.20298100015151,46.858243999237168]},"properties":{"OBJECTID":74,"OWNER_E":"Ciment Québec inc.","FAC_TYPE_E":"(P., Plant)","FAC_DESC_E":"Open-pit, plant","COMMODIT_E":"Limestone","COM_DESC_E":"Limestone","COM_GROU_E":"Industrial minerals","CITY_E":"city of Québec","PROVINCE_E":"Quebec","LATITUDE":46.858243999999999,"LONGITUDE":-71.202980999999994}},{"type":"Feature","id":75,"geometry":{"type":"Point","coordinates":[-71.607500000185624,45.619299998990982]},"properties":{"OBJECTID":75,"OWNER_E":"Graymont Inc.","FAC_TYPE_E":"(P., Plant)","FAC_DESC_E":"Open-pit, plant","COMMODIT_E":"Limestone, lime","COM_DESC_E":"Limestone, lime","COM_GROU_E":"Industrial minerals","CITY_E":"Marbleton","PROVINCE_E":"Quebec","LATITUDE":45.619300000000003,"LONGITUDE":-71.607500000000002}},{"type":"Feature","id":76,"geometry":{"type":"Point","coordinates":[-71.815131000249423,46.744909999262667]},"properties":{"OBJECTID":76,"OWNER_E":"Ciment Québec inc.","FAC_TYPE_E":"(P., Plant)","FAC_DESC_E":"Open-pit, plant","COMMODIT_E":"Limestone","COM_DESC_E":"Limestone","COM_GROU_E":"Industrial minerals","CITY_E":"Saint-Basile","PROVINCE_E":"Quebec","LATITUDE":46.744909999999997,"LONGITUDE":-71.815130999999994}},{"type":"Feature","id":77,"geometry":{"type":"Point","coordinates":[-72.053428000271296,46.677341998802916]},"properties":{"OBJECTID":77,"OWNER_E":"Graymont Inc.","FAC_TYPE_E":"(P., Plant)","FAC_DESC_E":"Open-pit, plant","COMMODIT_E":"Calcium carbonate","COM_DESC_E":"Calcium carbonate","COM_GROU_E":"Industrial minerals","CITY_E":"St-Marc-des-Carrières","PROVINCE_E":"Quebec","LATITUDE":46.677342000000003,"LONGITUDE":-72.053427999999997}},{"type":"Feature","id":78,"geometry":{"type":"Point","coordinates":[-72.554444000277726,46.642587999226976]},"properties":{"OBJECTID":78,"OWNER_E":"Carrière d'Acton Vale ltée","FAC_TYPE_E":"(P., Plant)","FAC_DESC_E":"Open-pit, plant","COMMODIT_E":"Calcium carbonate","COM_DESC_E":"Calcium carbonate","COM_GROU_E":"Industrial minerals","CITY_E":"Acton Vale","PROVINCE_E":"Quebec","LATITUDE":46.642588000000003,"LONGITUDE":-72.554444000000004}},{"type":"Feature","id":79,"geometry":{"type":"Point","coordinates":[-73.011799999997024,45.112699999020926]},"properties":{"OBJECTID":79,"OWNER_E":"Graymont Inc.","FAC_TYPE_E":"(P., Plant)","FAC_DESC_E":"Open-pit, plant","COMMODIT_E":"Limestone, lime","COM_DESC_E":"Limestone, lime","COM_GROU_E":"Industrial minerals","CITY_E":"Bedford","PROVINCE_E":"Quebec","LATITUDE":45.112699999999997,"LONGITUDE":-73.011799999999994}},{"type":"Feature","id":80,"geometry":{"type":"Point","coordinates":[-73.045200000064455,45.076199999052548]},"properties":{"OBJECTID":80,"OWNER_E":"OMYA (Canada) Inc.","FAC_TYPE_E":"(P., Plant)","FAC_DESC_E":"Open-pit, plant","COMMODIT_E":"Calcium carbonate","COM_DESC_E":"Calcium carbonate","COM_GROU_E":"Industrial minerals","CITY_E":"Saint-Armand","PROVINCE_E":"Quebec","LATITUDE":45.0762,"LONGITUDE":-73.045199999999994}},{"type":"Feature","id":81,"geometry":{"type":"Point","coordinates":[-73.402759999812517,46.030299999195201]},"properties":{"OBJECTID":81,"OWNER_E":"CRH Canada Group Inc.","FAC_TYPE_E":"(P., Plant)","FAC_DESC_E":"Open-pit, plant","COMMODIT_E":"Limestone","COM_DESC_E":"Limestone","COM_GROU_E":"Industrial minerals","CITY_E":"Joliette","PROVINCE_E":"Quebec","LATITUDE":46.030299999999997,"LONGITUDE":-73.402760000000001}},{"type":"Feature","id":82,"geometry":{"type":"Point","coordinates":[-73.524930999725342,45.343971998832153]},"properties":{"OBJECTID":82,"OWNER_E":"Lafarge Canada Inc.","FAC_TYPE_E":"(P., Plant)","FAC_DESC_E":"Open-pit, plant","COMMODIT_E":"Limestone","COM_DESC_E":"Limestone","COM_GROU_E":"Industrial minerals","CITY_E":"St-Constant","PROVINCE_E":"Quebec","LATITUDE":45.343972000000001,"LONGITUDE":-73.524930999999995}},{"type":"Feature","id":83,"geometry":{"type":"Point","coordinates":[-73.701346999835053,45.588916998844695]},"properties":{"OBJECTID":83,"OWNER_E":"Demix Agrégats","FAC_TYPE_E":"(P., Plant)","FAC_DESC_E":"Open-pit, plant","COMMODIT_E":"Limestone","COM_DESC_E":"Limestone","COM_GROU_E":"Industrial minerals","CITY_E":"Laval","PROVINCE_E":"Quebec","LATITUDE":45.588917000000002,"LONGITUDE":-73.701346999999998}},{"type":"Feature","id":84,"geometry":{"type":"Point","coordinates":[-73.704045999784313,45.593092999265785]},"properties":{"OBJECTID":84,"OWNER_E":"Ciment Québec inc.","FAC_TYPE_E":"(P., Plant)","FAC_DESC_E":"Open-pit, plant","COMMODIT_E":"Limestone","COM_DESC_E":"Limestone","COM_GROU_E":"Industrial minerals","CITY_E":"Laval","PROVINCE_E":"Quebec","LATITUDE":45.593093000000003,"LONGITUDE":-73.704046000000005}},{"type":"Feature","id":85,"geometry":{"type":"Point","coordinates":[-74.338369999982348,47.952795999323328]},"properties":{"OBJECTID":85,"OWNER_E":"Imerys Mica Suzorite, Inc.","FAC_TYPE_E":"(P.)","FAC_DESC_E":"Open-pit","COMMODIT_E":"Mica","COM_DESC_E":"Mica","COM_GROU_E":"Industrial minerals","CITY_E":"Parent, Suzor Twp.","PROVINCE_E":"Quebec","LATITUDE":47.952795999999999,"LONGITUDE":-74.338369999999998}},{"type":"Feature","id":86,"geometry":{"type":"Point","coordinates":[-74.614019999648491,45.768526999038571]},"properties":{"OBJECTID":86,"OWNER_E":"Lehigh Hanson","FAC_TYPE_E":"(P., Plant)","FAC_DESC_E":"Open-pit, plant","COMMODIT_E":"Limestone","COM_DESC_E":"Limestone","COM_GROU_E":"Industrial minerals","CITY_E":"Grenville-sur-la-Rouge","PROVINCE_E":"Quebec","LATITUDE":45.768526999999999,"LONGITUDE":-74.614019999999996}},{"type":"Feature","id":87,"geometry":{"type":"Point","coordinates":[-75.535699999878958,46.375299998812196]},"properties":{"OBJECTID":87,"OWNER_E":"Northern Graphite Corporation","FAC_TYPE_E":"(P., Plant)","FAC_DESC_E":"Open-pit, plant","COMMODIT_E":"Graphite","COM_DESC_E":"Graphite","COM_GROU_E":"Industrial minerals","CITY_E":"Saint-Aimé-du-Lac-des-Îles","PROVINCE_E":"Quebec","LATITUDE":46.375300000000003,"LONGITUDE":-75.535700000000006}},{"type":"Feature","id":88,"geometry":{"type":"Point","coordinates":[-76.246541000283358,44.462617998831114]},"properties":{"OBJECTID":88,"OWNER_E":"Canadian Wollastonite","FAC_TYPE_E":"(P.)","FAC_DESC_E":"Open-pit","COMMODIT_E":"Wollastonite","COM_DESC_E":"Wollastonite","COM_GROU_E":"Industrial minerals","CITY_E":"Kingston","PROVINCE_E":"Ontario","LATITUDE":44.462617999999999,"LONGITUDE":-76.246540999999993}},{"type":"Feature","id":89,"geometry":{"type":"Point","coordinates":[-76.495700000224431,45.150999998949196]},"properties":{"OBJECTID":89,"OWNER_E":"OMYA (Canada) Inc.","FAC_TYPE_E":"(P.)","FAC_DESC_E":"Open-pit","COMMODIT_E":"Calcium carbonate","COM_DESC_E":"Calcium carbonate","COM_GROU_E":"Industrial minerals","CITY_E":"Tatlock","PROVINCE_E":"Ontario","LATITUDE":45.151000000000003,"LONGITUDE":-76.495699999999999}},{"type":"Feature","id":90,"geometry":{"type":"Point","coordinates":[-76.809137999728009,44.170859999201113]},"properties":{"OBJECTID":90,"OWNER_E":"Lafarge Canada Inc.","FAC_TYPE_E":"(P.)","FAC_DESC_E":"Open-pit","COMMODIT_E":"Limestone","COM_DESC_E":"Limestone","COM_GROU_E":"Industrial minerals","CITY_E":"Bath","PROVINCE_E":"Ontario","LATITUDE":44.170859999999998,"LONGITUDE":-76.809138000000004}},{"type":"Feature","id":91,"geometry":{"type":"Point","coordinates":[-77.122714000222146,44.05296499888032]},"properties":{"OBJECTID":91,"OWNER_E":"Lehigh Hanson","FAC_TYPE_E":"(P.)","FAC_DESC_E":"Open-pit","COMMODIT_E":"Limestone","COM_DESC_E":"Limestone","COM_GROU_E":"Industrial minerals","CITY_E":"Picton","PROVINCE_E":"Ontario","LATITUDE":44.052965,"LONGITUDE":-77.122714000000002}},{"type":"Feature","id":92,"geometry":{"type":"Point","coordinates":[-77.880600000227972,43.983099998930435]},"properties":{"OBJECTID":92,"OWNER_E":"CRH Canada Group Inc.","FAC_TYPE_E":"(P.)","FAC_DESC_E":"Open-pit","COMMODIT_E":"Limestone","COM_DESC_E":"Limestone","COM_GROU_E":"Industrial minerals","CITY_E":"Ogden Point","PROVINCE_E":"Ontario","LATITUDE":43.9831,"LONGITUDE":-77.880600000000001}},{"type":"Feature","id":93,"geometry":{"type":"Point","coordinates":[-77.949100000054244,44.677499999027653]},"properties":{"OBJECTID":93,"OWNER_E":"Covia Canada Ltd.","FAC_TYPE_E":"(P., Plant)","FAC_DESC_E":"Open-pit, plant","COMMODIT_E":"Nepheline syenite","COM_DESC_E":"Nepheline syenite","COM_GROU_E":"Industrial minerals","CITY_E":"Blue Mountain","PROVINCE_E":"Ontario","LATITUDE":44.677500000000002,"LONGITUDE":-77.949100000000001}},{"type":"Feature","id":94,"geometry":{"type":"Point","coordinates":[-78.69460000017655,43.884499999039669]},"properties":{"OBJECTID":94,"OWNER_E":"St Marys CBM (Canada) Inc.","FAC_TYPE_E":"(P.)","FAC_DESC_E":"Open-pit","COMMODIT_E":"Limestone","COM_DESC_E":"Limestone","COM_GROU_E":"Industrial minerals","CITY_E":"Bowmanville","PROVINCE_E":"Ontario","LATITUDE":43.884500000000003,"LONGITUDE":-78.694599999999994}},{"type":"Feature","id":95,"geometry":{"type":"Point","coordinates":[-79.671431999901898,47.45372199934863]},"properties":{"OBJECTID":95,"OWNER_E":"Miller Minerals (Miller Paving Co.)","FAC_TYPE_E":"(P., Plant)","FAC_DESC_E":"Open-pit, plant","COMMODIT_E":"Limestone","COM_DESC_E":"Limestone","COM_GROU_E":"Industrial minerals","CITY_E":"New Liskeard","PROVINCE_E":"Ontario","LATITUDE":47.453721999999999,"LONGITUDE":-79.671431999999996}},{"type":"Feature","id":96,"geometry":{"type":"Point","coordinates":[-79.98639400026812,43.291781998995539]},"properties":{"OBJECTID":96,"OWNER_E":"Carmeuse Lime (Canada) Limited","FAC_TYPE_E":"(P.)","FAC_DESC_E":"Open-pit","COMMODIT_E":"Dolomitic lime","COM_DESC_E":"Dolomitic lime","COM_GROU_E":"Industrial minerals","CITY_E":"Dundas","PROVINCE_E":"Ontario","LATITUDE":43.291781999999998,"LONGITUDE":-79.986394000000004}},{"type":"Feature","id":97,"geometry":{"type":"Point","coordinates":[-80.008395999940845,43.291517998778922]},"properties":{"OBJECTID":97,"OWNER_E":"Lafarge Canada Inc.","FAC_TYPE_E":"(P.)","FAC_DESC_E":"Open-pit","COMMODIT_E":"Limestone","COM_DESC_E":"Limestone","COM_GROU_E":"Industrial minerals","CITY_E":"Dundas","PROVINCE_E":"Ontario","LATITUDE":43.291518000000003,"LONGITUDE":-80.008396000000005}},{"type":"Feature","id":98,"geometry":{"type":"Point","coordinates":[-80.016869000430489,43.012202998915235]},"properties":{"OBJECTID":98,"OWNER_E":"CGC Inc.","FAC_TYPE_E":"(U., Plant)","FAC_DESC_E":"Underground, plant","COMMODIT_E":"Gypsum","COM_DESC_E":"Gypsum","COM_GROU_E":"Industrial minerals","CITY_E":"Hagersville","PROVINCE_E":"Ontario","LATITUDE":43.012203,"LONGITUDE":-80.016869}},{"type":"Feature","id":99,"geometry":{"type":"Point","coordinates":[-80.85680299971223,43.06836699920062]},"properties":{"OBJECTID":99,"OWNER_E":"Carmeuse Lime (Canada) Limited","FAC_TYPE_E":"(P., Plant)","FAC_DESC_E":"Open-pit, plant","COMMODIT_E":"Limestone, lime","COM_DESC_E":"Limestone, lime","COM_GROU_E":"Industrial minerals","CITY_E":"Ingersoll","PROVINCE_E":"Ontario","LATITUDE":43.068367000000002,"LONGITUDE":-80.856802999999999}},{"type":"Feature","id":100,"geometry":{"type":"Point","coordinates":[-80.860700000110882,44.566899998882818]},"properties":{"OBJECTID":100,"OWNER_E":"E.C. King Contracting Ltd. (Miller Paving Co.)","FAC_TYPE_E":"(P.)","FAC_DESC_E":"Open-pit","COMMODIT_E":"Dolomite","COM_DESC_E":"Dolomite","COM_GROU_E":"Industrial minerals","CITY_E":"Owen Sound","PROVINCE_E":"Ontario","LATITUDE":44.566899999999997,"LONGITUDE":-80.860699999999994}},{"type":"Feature","id":101,"geometry":{"type":"Point","coordinates":[-81.045599999682608,44.589899999161041]},"properties":{"OBJECTID":101,"OWNER_E":"Owen Sound Ledgerock Ltd.","FAC_TYPE_E":"(P.)","FAC_DESC_E":"Open-pit","COMMODIT_E":"Dolomite","COM_DESC_E":"Dolomite","COM_GROU_E":"Industrial minerals","CITY_E":"Owen Sound","PROVINCE_E":"Ontario","LATITUDE":44.5899,"LONGITUDE":-81.045599999999993}},{"type":"Feature","id":102,"geometry":{"type":"Point","coordinates":[-81.158800000061703,43.248299999201144]},"properties":{"OBJECTID":102,"OWNER_E":"St Marys CBM (Canada) Inc.","FAC_TYPE_E":"(P.)","FAC_DESC_E":"Open-pit","COMMODIT_E":"Limestone","COM_DESC_E":"Limestone","COM_GROU_E":"Industrial minerals","CITY_E":"St. Marys","PROVINCE_E":"Ontario","LATITUDE":43.2483,"LONGITUDE":-81.158799999999999}},{"type":"Feature","id":103,"geometry":{"type":"Point","coordinates":[-81.724600000144036,46.626799999328718]},"properties":{"OBJECTID":103,"OWNER_E":"Boreal Agrominerals Inc.","FAC_TYPE_E":"(P.)","FAC_DESC_E":"Open-pit","COMMODIT_E":"Vermiculite","COM_DESC_E":"Salt","COM_GROU_E":"Industrial minerals","CITY_E":"northwest of Sudbury","PROVINCE_E":"Ontario","LATITUDE":46.626800000000003,"LONGITUDE":-81.724599999999995}},{"type":"Feature","id":104,"geometry":{"type":"Point","coordinates":[-81.72475400012982,43.743732999180075]},"properties":{"OBJECTID":104,"OWNER_E":"Compass Minerals Canada Corporation","FAC_TYPE_E":"(U., Plant)","FAC_DESC_E":"Underground, plant","COMMODIT_E":"Salt","COM_DESC_E":"Salt","COM_GROU_E":"Industrial minerals","CITY_E":"Goderich","PROVINCE_E":"Ontario","LATITUDE":43.743732999999999,"LONGITUDE":-81.724754000000004}},{"type":"Feature","id":105,"geometry":{"type":"Point","coordinates":[-81.728249999772174,43.746874998843921]},"properties":{"OBJECTID":105,"OWNER_E":"Compass Minerals Canada Corporation","FAC_TYPE_E":"(Solution mining)","FAC_DESC_E":"Soultion mining","COMMODIT_E":"Salt","COM_DESC_E":"Salt","COM_GROU_E":"Industrial minerals","CITY_E":"Goderich","PROVINCE_E":"Ontario","LATITUDE":43.746875000000003,"LONGITUDE":-81.728250000000003}},{"type":"Feature","id":106,"geometry":{"type":"Point","coordinates":[-82.098479999984249,48.191812998866908]},"properties":{"OBJECTID":106,"OWNER_E":"Magris Talc Canada Inc.","FAC_TYPE_E":"(P.)","FAC_DESC_E":"Open-pit","COMMODIT_E":"Talc","COM_DESC_E":"Talc","COM_GROU_E":"Industrial minerals","CITY_E":"Penhorwood","PROVINCE_E":"Ontario","LATITUDE":48.191813000000003,"LONGITUDE":-82.098479999999995}},{"type":"Feature","id":107,"geometry":{"type":"Point","coordinates":[-83.091963000237797,42.287092999338171]},"properties":{"OBJECTID":107,"OWNER_E":"K+S Windsor Salt Ltd.","FAC_TYPE_E":"(Solution mining)","FAC_DESC_E":"Soultion mining","COMMODIT_E":"Salt","COM_DESC_E":"Salt","COM_GROU_E":"Industrial minerals","CITY_E":"Windsor","PROVINCE_E":"Ontario","LATITUDE":42.287092999999999,"LONGITUDE":-83.091963000000007}},{"type":"Feature","id":108,"geometry":{"type":"Point","coordinates":[-83.103299999634828,42.255799999203603]},"properties":{"OBJECTID":108,"OWNER_E":"K+S Windsor Salt Ltd.","FAC_TYPE_E":"(U.)","FAC_DESC_E":"Underground","COMMODIT_E":"Salt","COM_DESC_E":"Salt","COM_GROU_E":"Industrial minerals","CITY_E":"Windsor","PROVINCE_E":"Ontario","LATITUDE":42.255800000000001,"LONGITUDE":-83.103300000000004}},{"type":"Feature","id":109,"geometry":{"type":"Point","coordinates":[-83.220727000125464,45.909661998800779]},"properties":{"OBJECTID":109,"OWNER_E":"Lafarge Canada Inc.","FAC_TYPE_E":"(P., Plant)","FAC_DESC_E":"Open-pit, plant","COMMODIT_E":"Limestone, dolomite","COM_DESC_E":"Limestone, dolomite","COM_GROU_E":"Industrial minerals","CITY_E":"Manitoulin Island","PROVINCE_E":"Ontario","LATITUDE":45.909661999999997,"LONGITUDE":-83.220726999999997}},{"type":"Feature","id":110,"geometry":{"type":"Point","coordinates":[-98.765437999688899,51.413228999139655]},"properties":{"OBJECTID":110,"OWNER_E":"Graymont Inc.","FAC_TYPE_E":"(P., Plant)","FAC_DESC_E":"Open-pit, plant","COMMODIT_E":"Limestone, lime","COM_DESC_E":"Limestone, lime","COM_GROU_E":"Industrial minerals","CITY_E":"Faulkner","PROVINCE_E":"Manitoba","LATITUDE":51.413229000000001,"LONGITUDE":-98.765438000000003}},{"type":"Feature","id":111,"geometry":{"type":"Point","coordinates":[-101.04740099996656,49.903194998809496]},"properties":{"OBJECTID":111,"OWNER_E":"ERCO Worldwide","FAC_TYPE_E":"(U., Plant)","FAC_DESC_E":"Underground, plant","COMMODIT_E":"Sodium chlorate","COM_DESC_E":"Sodium chlorate","COM_GROU_E":"Industrial minerals","CITY_E":"Virden","PROVINCE_E":"Manitoba","LATITUDE":49.903194999999997,"LONGITUDE":-101.04740099999999}},{"type":"Feature","id":112,"geometry":{"type":"Point","coordinates":[-101.54428100009805,50.471915999299014]},"properties":{"OBJECTID":112,"OWNER_E":"Nutrien Ltd.","FAC_TYPE_E":"(U., Plant)","FAC_DESC_E":"Underground, plant","COMMODIT_E":"Potash","COM_DESC_E":"Potash","COM_GROU_E":"Industrial minerals","CITY_E":"Rocanville","PROVINCE_E":"Saskatchewan","LATITUDE":50.471916,"LONGITUDE":-101.544281}},{"type":"Feature","id":113,"geometry":{"type":"Point","coordinates":[-101.84521800009036,50.659913999184951]},"properties":{"OBJECTID":113,"OWNER_E":"The Mosaic Company","FAC_TYPE_E":"(U., Plant)","FAC_DESC_E":"Underground, plant","COMMODIT_E":"Potash, salt","COM_DESC_E":"Potash, salt","COM_GROU_E":"Industrial minerals","CITY_E":"Esterhazy","PROVINCE_E":"Saskatchewan","LATITUDE":50.659914000000001,"LONGITUDE":-101.845218}},{"type":"Feature","id":114,"geometry":{"type":"Point","coordinates":[-104.31991599984664,51.780627998962217]},"properties":{"OBJECTID":114,"OWNER_E":"Compass Minerals Canada Corporation","FAC_TYPE_E":"(Plant)","FAC_DESC_E":"Plant","COMMODIT_E":"Potassium sulphate","COM_DESC_E":"Potassium sulphate","COM_GROU_E":"Industrial minerals","CITY_E":"Wynyard","PROVINCE_E":"Saskatchewan","LATITUDE":51.780628,"LONGITUDE":-104.31991600000001}},{"type":"Feature","id":115,"geometry":{"type":"Point","coordinates":[-105.18142300025232,50.435625999008785]},"properties":{"OBJECTID":115,"OWNER_E":"The Mosaic Company","FAC_TYPE_E":"(U., Plant)","FAC_DESC_E":"Underground, plant","COMMODIT_E":"Potash, salt","COM_DESC_E":"Potash, salt","COM_GROU_E":"Industrial minerals","CITY_E":"Belle Plaine","PROVINCE_E":"Saskatchewan","LATITUDE":50.435625999999999,"LONGITUDE":-105.181423}},{"type":"Feature","id":116,"geometry":{"type":"Point","coordinates":[-105.20579400016138,51.853043999115421]},"properties":{"OBJECTID":116,"OWNER_E":"Nutrien Ltd.","FAC_TYPE_E":"(U.)","FAC_DESC_E":"Underground","COMMODIT_E":"Potash","COM_DESC_E":"Potash","COM_GROU_E":"Industrial minerals","CITY_E":"Lanigan","PROVINCE_E":"Saskatchewan","LATITUDE":51.853043999999997,"LONGITUDE":-105.205794}},{"type":"Feature","id":117,"geometry":{"type":"Point","coordinates":[-105.26166999955443,50.629169998912644]},"properties":{"OBJECTID":117,"OWNER_E":"K+S Potash Canada","FAC_TYPE_E":"(U., Plant)","FAC_DESC_E":"Underground, plant","COMMODIT_E":"Potash","COM_DESC_E":"Potash","COM_GROU_E":"Industrial minerals","CITY_E":"Bethune","PROVINCE_E":"Saskatchewan","LATITUDE":50.629170000000002,"LONGITUDE":-105.26167}},{"type":"Feature","id":118,"geometry":{"type":"Point","coordinates":[-106.06897399959598,51.93061999927864]},"properties":{"OBJECTID":118,"OWNER_E":"Nutrien Ltd.","FAC_TYPE_E":"(U., Plant)","FAC_DESC_E":"Underground, plant","COMMODIT_E":"Potash","COM_DESC_E":"Potash","COM_GROU_E":"Industrial minerals","CITY_E":"Allan","PROVINCE_E":"Saskatchewan","LATITUDE":51.930619999999998,"LONGITUDE":-106.068974}},{"type":"Feature","id":119,"geometry":{"type":"Point","coordinates":[-106.37699200035809,52.089361999118161]},"properties":{"OBJECTID":119,"OWNER_E":"Nutrien Ltd.","FAC_TYPE_E":"(U., Plant)","FAC_DESC_E":"Underground, plant","COMMODIT_E":"Potash","COM_DESC_E":"Potash","COM_GROU_E":"Industrial minerals","CITY_E":"Blucher","PROVINCE_E":"Saskatchewan","LATITUDE":52.089362000000001,"LONGITUDE":-106.376992}},{"type":"Feature","id":120,"geometry":{"type":"Point","coordinates":[-106.62040000022327,52.201499998865536]},"properties":{"OBJECTID":120,"OWNER_E":"ERCO Worldwide","FAC_TYPE_E":"(Solution mining, Plant)","FAC_DESC_E":"Solution mining, plant","COMMODIT_E":"Salt","COM_DESC_E":"Salt","COM_GROU_E":"Industrial minerals","CITY_E":"Saskatoon","PROVINCE_E":"Saskatchewan","LATITUDE":52.201500000000003,"LONGITUDE":-106.6204}},{"type":"Feature","id":121,"geometry":{"type":"Point","coordinates":[-106.66999999983388,50.45729999882942]},"properties":{"OBJECTID":121,"OWNER_E":"Saskatchewan Mining and Minerals Inc.","FAC_TYPE_E":"(P., Plant)","FAC_DESC_E":"Open-pit, plant","COMMODIT_E":"Sodium sulphate","COM_DESC_E":"Sodium sulphate","COM_GROU_E":"Industrial minerals","CITY_E":"Chaplin","PROVINCE_E":"Saskatchewan","LATITUDE":50.457299999999996,"LONGITUDE":-106.67}},{"type":"Feature","id":122,"geometry":{"type":"Point","coordinates":[-106.85935800039414,52.092026998849946]},"properties":{"OBJECTID":122,"OWNER_E":"Nutrien Ltd.","FAC_TYPE_E":"(U., Plant)","FAC_DESC_E":"Underground, plant","COMMODIT_E":"Potash","COM_DESC_E":"Potash","COM_GROU_E":"Industrial minerals","CITY_E":"Cory","PROVINCE_E":"Saskatchewan","LATITUDE":52.092027000000002,"LONGITUDE":-106.859358}},{"type":"Feature","id":123,"geometry":{"type":"Point","coordinates":[-107.07999999960711,52.009999999168343]},"properties":{"OBJECTID":123,"OWNER_E":"Nutrien Ltd.","FAC_TYPE_E":"(U., Plant)","FAC_DESC_E":"Underground, plant","COMMODIT_E":"Potash, salt","COM_DESC_E":"Potash, salt","COM_GROU_E":"Industrial minerals","CITY_E":"Vanscoy","PROVINCE_E":"Saskatchewan","LATITUDE":52.009999999999998,"LONGITUDE":-107.08}},{"type":"Feature","id":124,"geometry":{"type":"Point","coordinates":[-109.11000000041251,52.423299999335974]},"properties":{"OBJECTID":124,"OWNER_E":"Compass Minerals Canada Corporation","FAC_TYPE_E":"(Solution mining)","FAC_DESC_E":"Soultion mining","COMMODIT_E":"Salt","COM_DESC_E":"Salt","COM_GROU_E":"Industrial minerals","CITY_E":"Unity","PROVINCE_E":"Saskatchewan","LATITUDE":52.423299999999998,"LONGITUDE":-109.11}},{"type":"Feature","id":125,"geometry":{"type":"Point","coordinates":[-110.63933099974446,53.862692998908621]},"properties":{"OBJECTID":125,"OWNER_E":"K+S Windsor Salt Ltd.","FAC_TYPE_E":"(Solution mining)","FAC_DESC_E":"Soultion mining","COMMODIT_E":"Salt","COM_DESC_E":"Salt","COM_GROU_E":"Industrial minerals","CITY_E":"Elk Point","PROVINCE_E":"Alberta","LATITUDE":53.862693,"LONGITUDE":-110.639331}},{"type":"Feature","id":126,"geometry":{"type":"Point","coordinates":[-111.37729999973347,56.902599999306176]},"properties":{"OBJECTID":126,"OWNER_E":"Hammerstone Corporation","FAC_TYPE_E":"(P.)","FAC_DESC_E":"Open-pit","COMMODIT_E":"Limestone","COM_DESC_E":"Limestone","COM_GROU_E":"Industrial minerals","CITY_E":"north of Fort McMurray","PROVINCE_E":"Alberta","LATITUDE":56.9026,"LONGITUDE":-111.37730000000001}},{"type":"Feature","id":127,"geometry":{"type":"Point","coordinates":[-111.55595399965998,51.006736999050702]},"properties":{"OBJECTID":127,"OWNER_E":"Jarodon Resources Ltd.","FAC_TYPE_E":"(Solution mining)","FAC_DESC_E":"Soultion mining","COMMODIT_E":"Salt","COM_DESC_E":"Salt","COM_GROU_E":"Industrial minerals","CITY_E":"Cessford","PROVINCE_E":"Alberta","LATITUDE":51.006737000000001,"LONGITUDE":-111.555954}},{"type":"Feature","id":128,"geometry":{"type":"Point","coordinates":[-111.57200000011572,57.021799999210323]},"properties":{"OBJECTID":128,"OWNER_E":"Suncor Energy Inc.","FAC_TYPE_E":"(P.)","FAC_DESC_E":"Open-pit","COMMODIT_E":"Limestone","COM_DESC_E":"Limestone","COM_GROU_E":"Industrial minerals","CITY_E":"Fort McMurray","PROVINCE_E":"Alberta","LATITUDE":57.021799999999999,"LONGITUDE":-111.572}},{"type":"Feature","id":129,"geometry":{"type":"Point","coordinates":[-113.21979700037906,55.174239999116359]},"properties":{"OBJECTID":129,"OWNER_E":"Ward Chemical","FAC_TYPE_E":"(Solution mining)","FAC_DESC_E":"Soultion mining","COMMODIT_E":"Salt","COM_DESC_E":"Salt","COM_GROU_E":"Industrial minerals","CITY_E":"Calling Lake","PROVINCE_E":"Alberta","LATITUDE":55.174239999999998,"LONGITUDE":-113.219797}},{"type":"Feature","id":130,"geometry":{"type":"Point","coordinates":[-114.59861700041876,55.2729689991844]},"properties":{"OBJECTID":130,"OWNER_E":"Tiger Calcium Services Inc.","FAC_TYPE_E":"(Solution mining)","FAC_DESC_E":"Soultion mining","COMMODIT_E":"Salt","COM_DESC_E":"Salt","COM_GROU_E":"Industrial minerals","CITY_E":"Slave Lake","PROVINCE_E":"Alberta","LATITUDE":55.272969000000003,"LONGITUDE":-114.598617}},{"type":"Feature","id":131,"geometry":{"type":"Point","coordinates":[-115.1350470000034,51.069152999326526]},"properties":{"OBJECTID":131,"OWNER_E":"Graymont Inc.","FAC_TYPE_E":"(P., Plant)","FAC_DESC_E":"Open-pit, plant","COMMODIT_E":"Limestone, lime","COM_DESC_E":"Limestone, lime","COM_GROU_E":"Industrial minerals","CITY_E":"Exshaw","PROVINCE_E":"Alberta","LATITUDE":51.069153,"LONGITUDE":-115.135047}},{"type":"Feature","id":132,"geometry":{"type":"Point","coordinates":[-115.1716060003276,51.059441999022276]},"properties":{"OBJECTID":132,"OWNER_E":"Lafarge Canada Inc.","FAC_TYPE_E":"(P., Plant)","FAC_DESC_E":"Open-pit, plant","COMMODIT_E":"Limestone","COM_DESC_E":"Limestone, lime","COM_GROU_E":"Industrial minerals","CITY_E":"Exshaw","PROVINCE_E":"Alberta","LATITUDE":51.059441999999997,"LONGITUDE":-115.171606}},{"type":"Feature","id":133,"geometry":{"type":"Point","coordinates":[-115.28749999973476,51.965299998850639]},"properties":{"OBJECTID":133,"OWNER_E":"Burnco Rock Products Ltd.","FAC_TYPE_E":"(P., Plant)","FAC_DESC_E":"Open-pit, plant","COMMODIT_E":"Limestone","COM_DESC_E":"Limestone, lime","COM_GROU_E":"Industrial minerals","CITY_E":"Clearwater River","PROVINCE_E":"Alberta","LATITUDE":51.965299999999999,"LONGITUDE":-115.28749999999999}},{"type":"Feature","id":134,"geometry":{"type":"Point","coordinates":[-117.29880399964068,53.010211999294512]},"properties":{"OBJECTID":134,"OWNER_E":"Lehigh Hanson","FAC_TYPE_E":"(P.)","FAC_DESC_E":"Open-pit","COMMODIT_E":"Limestone","COM_DESC_E":"Limestone","COM_GROU_E":"Industrial minerals","CITY_E":"Cadomin","PROVINCE_E":"Alberta","LATITUDE":53.010212000000003,"LONGITUDE":-117.298804}},{"type":"Feature","id":135,"geometry":{"type":"Point","coordinates":[-115.68299999965626,50.788699999115593]},"properties":{"OBJECTID":135,"OWNER_E":"Baymag Inc.","FAC_TYPE_E":"(P.)","FAC_DESC_E":"Open-pit","COMMODIT_E":"Magnesite (fused), magnesia (products)","COM_DESC_E":"Magnesite (fused), magnesia (products)","COM_GROU_E":"Industrial minerals","CITY_E":"Mount Brussilof","PROVINCE_E":"British Columbia","LATITUDE":50.788699999999999,"LONGITUDE":-115.68300000000001}},{"type":"Feature","id":136,"geometry":{"type":"Point","coordinates":[-115.9001600003689,50.498281999230912]},"properties":{"OBJECTID":136,"OWNER_E":"CertainTeed Gypsum Canada, Inc.","FAC_TYPE_E":"(P.)","FAC_DESC_E":"Open-pit","COMMODIT_E":"Gypsum","COM_DESC_E":"Gypsum","COM_GROU_E":"Industrial minerals","CITY_E":"Windermere","PROVINCE_E":"British Columbia","LATITUDE":50.498282000000003,"LONGITUDE":-115.90016}},{"type":"Feature","id":137,"geometry":{"type":"Point","coordinates":[-119.55246500017373,50.510391999135933]},"properties":{"OBJECTID":137,"OWNER_E":"Lafarge Canada Inc.","FAC_TYPE_E":"(P., Plant)","FAC_DESC_E":"Open-pit, plant","COMMODIT_E":"Gypsum","COM_DESC_E":"Gypsum","COM_GROU_E":"Industrial minerals","CITY_E":"Falkland","PROVINCE_E":"British Columbia","LATITUDE":50.510392000000003,"LONGITUDE":-119.552465}},{"type":"Feature","id":138,"geometry":{"type":"Point","coordinates":[-120.55756400038189,49.424528999099557]},"properties":{"OBJECTID":138,"OWNER_E":"Progressive Planet Solutions Inc.","FAC_TYPE_E":"(P.)","FAC_DESC_E":"Open-pit","COMMODIT_E":"Zeolite, calcium bentonite clay","COM_DESC_E":"Zeolite, calcium bentonite clay","COM_GROU_E":"Industrial minerals","CITY_E":"Princeton","PROVINCE_E":"British Columbia","LATITUDE":49.424529,"LONGITUDE":-120.557564}},{"type":"Feature","id":139,"geometry":{"type":"Point","coordinates":[-120.81500000009571,50.938699999020045]},"properties":{"OBJECTID":139,"OWNER_E":"Progressive Planet Solutions Inc.","FAC_TYPE_E":"(P.)","FAC_DESC_E":"Open-pit","COMMODIT_E":"Diatomite, bentonite, leonardite","COM_DESC_E":"Diatomite, bentonite, leonardite","COM_GROU_E":"Industrial minerals","CITY_E":"Kamloops","PROVINCE_E":"British Columbia","LATITUDE":50.938699999999997,"LONGITUDE":-120.815}},{"type":"Feature","id":140,"geometry":{"type":"Point","coordinates":[-124.52799999995715,49.740499999033503]},"properties":{"OBJECTID":140,"OWNER_E":"Imperial Limestone Co. Ltd.","FAC_TYPE_E":"(P.)","FAC_DESC_E":"Open-pit","COMMODIT_E":"Limestone","COM_DESC_E":"Limestone","COM_GROU_E":"Industrial minerals","CITY_E":"Texada Island","PROVINCE_E":"British Columbia","LATITUDE":49.740499999999997,"LONGITUDE":-124.52800000000001}},{"type":"Feature","id":141,"geometry":{"type":"Point","coordinates":[-124.56856499956163,49.718974999056314]},"properties":{"OBJECTID":141,"OWNER_E":"Texada Quarrying Ltd. (Lafarge Canada Inc.)","FAC_TYPE_E":"(P.)","FAC_DESC_E":"Open-pit","COMMODIT_E":"Limestone","COM_DESC_E":"Limestone","COM_GROU_E":"Industrial minerals","CITY_E":"Texada Island","PROVINCE_E":"British Columbia","LATITUDE":49.718975,"LONGITUDE":-124.56856500000001}},{"type":"Feature","id":142,"geometry":{"type":"Point","coordinates":[-127.20619700010022,59.770474999042477]},"properties":{"OBJECTID":142,"OWNER_E":"Fireside Minerals Ltd.","FAC_TYPE_E":"(P.)","FAC_DESC_E":"Open-pit","COMMODIT_E":"Barite","COM_DESC_E":"Barite","COM_GROU_E":"Industrial minerals","CITY_E":"Fireside","PROVINCE_E":"British Columbia","LATITUDE":59.770474999999998,"LONGITUDE":-127.206197}},{"type":"Feature","id":143,"geometry":{"type":"Point","coordinates":[-66.912572999750751,52.907128999095129]},"properties":{"OBJECTID":143,"OWNER_E":"Tacora Resources Inc.","FAC_TYPE_E":"(P., C.)","FAC_DESC_E":"Open-pit, concentrator","COMMODIT_E":"Fe","COM_DESC_E":"Iron ore","COM_GROU_E":"Iron ore","CITY_E":"Wabush","PROVINCE_E":"Newfoundland and Labrador","LATITUDE":52.907128999999998,"LONGITUDE":-66.912572999999995}},{"type":"Feature","id":144,"geometry":{"type":"Point","coordinates":[-66.936773999780499,53.039754999020822]},"properties":{"OBJECTID":144,"OWNER_E":"Iron Ore Company of Canada Inc.","FAC_TYPE_E":"(P., C.)","FAC_DESC_E":"Open-pit, concentrator","COMMODIT_E":"Fe","COM_DESC_E":"Iron ore","COM_GROU_E":"Iron ore","CITY_E":"Labrador City","PROVINCE_E":"Newfoundland and Labrador","LATITUDE":53.039755,"LONGITUDE":-66.936774}},{"type":"Feature","id":145,"geometry":{"type":"Point","coordinates":[-67.081916000384922,54.890827998879097]},"properties":{"OBJECTID":145,"OWNER_E":"Tata Steel Minerals Canada Limited","FAC_TYPE_E":"(P., C.)","FAC_DESC_E":"Open-pit, concentrator","COMMODIT_E":"Fe","COM_DESC_E":"Iron ore","COM_GROU_E":"Iron ore","CITY_E":"Menihek","PROVINCE_E":"Newfoundland and Labrador","LATITUDE":54.890827999999999,"LONGITUDE":-67.081916000000007}},{"type":"Feature","id":146,"geometry":{"type":"Point","coordinates":[-67.280000000256521,52.839999999278049]},"properties":{"OBJECTID":146,"OWNER_E":"Champion Iron Ltd.","FAC_TYPE_E":"(P.)","FAC_DESC_E":"Open-pit","COMMODIT_E":"Fe","COM_DESC_E":"Iron ore","COM_GROU_E":"Iron ore","CITY_E":"Fermont","PROVINCE_E":"Quebec","LATITUDE":52.840000000000003,"LONGITUDE":-67.280000000000001}},{"type":"Feature","id":147,"geometry":{"type":"Point","coordinates":[-67.330057999626518,52.75705299903192]},"properties":{"OBJECTID":147,"OWNER_E":"ArcelorMittal","FAC_TYPE_E":"(P., C.)","FAC_DESC_E":"Open-pit, concentrator","COMMODIT_E":"Fe","COM_DESC_E":"Iron ore","COM_GROU_E":"Iron ore","CITY_E":"Fermont","PROVINCE_E":"Quebec","LATITUDE":52.757052999999999,"LONGITUDE":-67.330057999999994}},{"type":"Feature","id":148,"geometry":{"type":"Point","coordinates":[-67.347780000382556,55.099389998883012]},"properties":{"OBJECTID":148,"OWNER_E":"Tata Steel Minerals Canada Limited","FAC_TYPE_E":"(P.)","FAC_DESC_E":"Open-pit","COMMODIT_E":"Fe","COM_DESC_E":"Iron ore","COM_GROU_E":"Iron ore","CITY_E":"Schefferville","PROVINCE_E":"Quebec","LATITUDE":55.09939,"LONGITUDE":-67.34778}},{"type":"Feature","id":149,"geometry":{"type":"Point","coordinates":[-67.363934999719916,52.352997998972043]},"properties":{"OBJECTID":149,"OWNER_E":"ArcelorMittal","FAC_TYPE_E":"(P.)","FAC_DESC_E":"Open-pit","COMMODIT_E":"Fe","COM_DESC_E":"Iron ore","COM_GROU_E":"Iron ore","CITY_E":"Fermont","PROVINCE_E":"Quebec","LATITUDE":52.352997999999999,"LONGITUDE":-67.363934999999998}},{"type":"Feature","id":150,"geometry":{"type":"Point","coordinates":[-78.556869000054817,71.340445999349726]},"properties":{"OBJECTID":150,"OWNER_E":"Baffinland Iron Mines Corporation","FAC_TYPE_E":"(P.)","FAC_DESC_E":"Open-pit","COMMODIT_E":"Fe","COM_DESC_E":"Iron ore","COM_GROU_E":"Iron ore","CITY_E":"Pond Inlet","PROVINCE_E":"Nunavut","LATITUDE":71.340446,"LONGITUDE":-78.556869000000006}},{"type":"Feature","id":151,"geometry":{"type":"Point","coordinates":[-111.06673100005845,57.396910999259887]},"properties":{"OBJECTID":151,"OWNER_E":"Imperial Oil Ltd.","FAC_TYPE_E":"(P.)","FAC_DESC_E":"Open-pit","COMMODIT_E":"Upgraded crude oil","COM_DESC_E":"Upgraded crude oil","COM_GROU_E":"Oil","CITY_E":"Fort McMurray","PROVINCE_E":"Alberta","LATITUDE":57.396911000000003,"LONGITUDE":-111.066731}},{"type":"Feature","id":152,"geometry":{"type":"Point","coordinates":[-111.33999999979265,56.871899999228233]},"properties":{"OBJECTID":152,"OWNER_E":"Suncor Energy Inc.","FAC_TYPE_E":"(P.)","FAC_DESC_E":"Open-pit","COMMODIT_E":"Upgraded crude oil","COM_DESC_E":"Upgraded crude oil","COM_GROU_E":"Oil","CITY_E":"Fort McMurray","PROVINCE_E":"Alberta","LATITUDE":56.871899999999997,"LONGITUDE":-111.34}},{"type":"Feature","id":153,"geometry":{"type":"Point","coordinates":[-111.37985555579985,57.249036110364379]},"properties":{"OBJECTID":153,"OWNER_E":"Canadian Natural Resources Limited","FAC_TYPE_E":"(P.)","FAC_DESC_E":"Open-pit","COMMODIT_E":"Upgraded crude oil","COM_DESC_E":"Upgraded crude oil","COM_GROU_E":"Oil","CITY_E":"Fort MacKay","PROVINCE_E":"Alberta","LATITUDE":57.249036111111103,"LONGITUDE":-111.37985555555601}},{"type":"Feature","id":154,"geometry":{"type":"Point","coordinates":[-111.45799999967045,57.313399999166087]},"properties":{"OBJECTID":154,"OWNER_E":"Syncrude Canada Ltd.","FAC_TYPE_E":"(P.)","FAC_DESC_E":"Open-pit","COMMODIT_E":"Upgraded crude oil","COM_DESC_E":"Upgraded crude oil","COM_GROU_E":"Oil","CITY_E":"Fort MacKay","PROVINCE_E":"Alberta","LATITUDE":57.313400000000001,"LONGITUDE":-111.458}},{"type":"Feature","id":155,"geometry":{"type":"Point","coordinates":[-111.46669999994083,56.999999999009482]},"properties":{"OBJECTID":155,"OWNER_E":"Syncrude Canada Ltd.","FAC_TYPE_E":"(P.)","FAC_DESC_E":"Open-pit","COMMODIT_E":"Upgraded crude oil","COM_DESC_E":"Upgraded crude oil","COM_GROU_E":"Oil","CITY_E":"Fort MacKay","PROVINCE_E":"Alberta","LATITUDE":57,"LONGITUDE":-111.4667}},{"type":"Feature","id":156,"geometry":{"type":"Point","coordinates":[-111.51199999964497,57.246499999055764]},"properties":{"OBJECTID":156,"OWNER_E":"Canadian Natural Resources Limited","FAC_TYPE_E":"(P.)","FAC_DESC_E":"Open-pit","COMMODIT_E":"Upgraded crude oil","COM_DESC_E":"Upgraded crude oil","COM_GROU_E":"Oil","CITY_E":"Fort MacKay","PROVINCE_E":"Alberta","LATITUDE":57.246499999999997,"LONGITUDE":-111.512}},{"type":"Feature","id":157,"geometry":{"type":"Point","coordinates":[-111.57200000011572,57.395199999011297]},"properties":{"OBJECTID":157,"OWNER_E":"Suncor Energy Inc.","FAC_TYPE_E":"(P.)","FAC_DESC_E":"Open-pit","COMMODIT_E":"Upgraded crude oil","COM_DESC_E":"Upgraded crude oil","COM_GROU_E":"Oil","CITY_E":"Fort MacKay","PROVINCE_E":"Alberta","LATITUDE":57.395200000000003,"LONGITUDE":-111.572}},{"type":"Feature","id":158,"geometry":{"type":"Point","coordinates":[-111.77494722201736,57.338233332465087]},"properties":{"OBJECTID":158,"OWNER_E":"Canadian Natural Resources Limited","FAC_TYPE_E":"(P.)","FAC_DESC_E":"Open-pit","COMMODIT_E":"Upgraded crude oil","COM_DESC_E":"Upgraded crude oil","COM_GROU_E":"Oil","CITY_E":"Fort MacKay","PROVINCE_E":"Alberta","LATITUDE":57.338233333333299,"LONGITUDE":-111.774947222222}},{"type":"Feature","id":159,"geometry":{"type":"Point","coordinates":[-55.195999999770677,48.715908999000746]},"properties":{"OBJECTID":159,"OWNER_E":"China Minmetals Rare Earth Group Co. Ltd.","FAC_TYPE_E":"(U., C.)","FAC_DESC_E":"Underground, concentrator","COMMODIT_E":"Sb","COM_DESC_E":"Antimony","COM_GROU_E":"Other metals","CITY_E":"Glenwood","PROVINCE_E":"Newfoundland and Labrador","LATITUDE":48.715909000000003,"LONGITUDE":-55.195999999999998}},{"type":"Feature","id":160,"geometry":{"type":"Point","coordinates":[-63.415999999584642,50.554099999040439]},"properties":{"OBJECTID":160,"OWNER_E":"Rio Tinto Group","FAC_TYPE_E":"(P.)","FAC_DESC_E":"Open-pit","COMMODIT_E":"Ilmenite","COM_DESC_E":"Ilmenite","COM_GROU_E":"Other metals","CITY_E":"Havre-Saint-Pierre","PROVINCE_E":"Quebec","LATITUDE":50.554099999999998,"LONGITUDE":-63.415999999999997}},{"type":"Feature","id":161,"geometry":{"type":"Point","coordinates":[-71.156929000061794,48.532147998969059]},"properties":{"OBJECTID":161,"OWNER_E":"Magris Performance Materials","FAC_TYPE_E":"(U., C.)","FAC_DESC_E":"Underground, concentrator","COMMODIT_E":"Nb","COM_DESC_E":"Niobium","COM_GROU_E":"Other metals","CITY_E":"Saint-Honoré-de-Chicoutimi","PROVINCE_E":"Quebec","LATITUDE":48.532147999999999,"LONGITUDE":-71.156929000000005}},{"type":"Feature","id":162,"geometry":{"type":"Point","coordinates":[-56.124447000053266,49.961419998952003]},"properties":{"OBJECTID":162,"OWNER_E":"Signal Gold Inc.","FAC_TYPE_E":"(P., C.)","FAC_DESC_E":"Open-pit, concentrator","COMMODIT_E":"Au","COM_DESC_E":"Gold","COM_GROU_E":"Precious metals","CITY_E":"Baie Verte","PROVINCE_E":"Newfoundland and Labrador","LATITUDE":49.961419999999997,"LONGITUDE":-56.124447000000004}},{"type":"Feature","id":163,"geometry":{"type":"Point","coordinates":[-62.94291999962492,44.982429998953585]},"properties":{"OBJECTID":163,"OWNER_E":"St Barbara Limited","FAC_TYPE_E":"(P., C.)","FAC_DESC_E":"Open-pit, concentrator","COMMODIT_E":"Au","COM_DESC_E":"Gold","COM_GROU_E":"Precious metals","CITY_E":"Upper Musquodoboit","PROVINCE_E":"Nova Scotia","LATITUDE":44.982430000000001,"LONGITUDE":-62.942920000000001}},{"type":"Feature","id":164,"geometry":{"type":"Point","coordinates":[-76.086670000396651,52.698889999167967]},"properties":{"OBJECTID":164,"OWNER_E":"Newmont Corporation","FAC_TYPE_E":"(U., C.)","FAC_DESC_E":"Underground, concentrator","COMMODIT_E":"Au","COM_DESC_E":"Gold","COM_GROU_E":"Precious metals","CITY_E":"Opinaca Reservoir","PROVINCE_E":"Quebec","LATITUDE":52.698889999999999,"LONGITUDE":-76.086669999999998}},{"type":"Feature","id":165,"geometry":{"type":"Point","coordinates":[-77.739623999635754,48.079220999319624]},"properties":{"OBJECTID":165,"OWNER_E":"Eldorado Gold","FAC_TYPE_E":"(U., C.)","FAC_DESC_E":"Underground, concentrator","COMMODIT_E":"Au","COM_DESC_E":"Gold","COM_GROU_E":"Precious metals","CITY_E":"Val-d’Or","PROVINCE_E":"Quebec","LATITUDE":48.079220999999997,"LONGITUDE":-77.739624000000006}},{"type":"Feature","id":166,"geometry":{"type":"Point","coordinates":[-77.873300000073385,48.092599999029176]},"properties":{"OBJECTID":166,"OWNER_E":"Agnico Eagle Mines Limited","FAC_TYPE_E":"(U., C.)","FAC_DESC_E":"Underground, concentrator","COMMODIT_E":"Au, Ag","COM_DESC_E":"Gold, Silver","COM_GROU_E":"Precious metals","CITY_E":"Val-d’Or","PROVINCE_E":"Quebec","LATITUDE":48.092599999999997,"LONGITUDE":-77.8733}},{"type":"Feature","id":167,"geometry":{"type":"Point","coordinates":[-77.909999999964569,48.119999999166716]},"properties":{"OBJECTID":167,"OWNER_E":"Wesdome Gold Mines Ltd.","FAC_TYPE_E":"(P., C.)","FAC_DESC_E":"Open-pit, concentrator","COMMODIT_E":"Au","COM_DESC_E":"Gold","COM_GROU_E":"Precious metals","CITY_E":"Val-d’Or","PROVINCE_E":"Quebec","LATITUDE":48.119999999999997,"LONGITUDE":-77.909999999999997}},{"type":"Feature","id":168,"geometry":{"type":"Point","coordinates":[-77.974339999626437,49.13258999904042]},"properties":{"OBJECTID":168,"OWNER_E":"Abcourt Mines Inc.","FAC_TYPE_E":"(C.)","FAC_DESC_E":"Concentrator","COMMODIT_E":"Au, Ag","COM_DESC_E":"Gold, Silver","COM_GROU_E":"Precious metals","CITY_E":"north of Amos","PROVINCE_E":"Quebec","LATITUDE":49.13259,"LONGITUDE":-77.974339999999998}},{"type":"Feature","id":169,"geometry":{"type":"Point","coordinates":[-78.130823999650744,48.122222999320094]},"properties":{"OBJECTID":169,"OWNER_E":"Agnico Eagle Mines Limited and Yamana Gold Inc.","FAC_TYPE_E":"(P., C.)","FAC_DESC_E":"Open-pit, concentrator","COMMODIT_E":"Au, Ag","COM_DESC_E":"Gold, Silver","COM_GROU_E":"Precious metals","CITY_E":"Malartic","PROVINCE_E":"Quebec","LATITUDE":48.122222999999998,"LONGITUDE":-78.130824000000004}},{"type":"Feature","id":170,"geometry":{"type":"Point","coordinates":[-78.427999999686847,48.251599998907523]},"properties":{"OBJECTID":170,"OWNER_E":"Agnico Eagle Mines Limited","FAC_TYPE_E":"(U., C.)","FAC_DESC_E":"Underground, concentrator","COMMODIT_E":"Au, Zn, Cu, Ag, Cd","COM_DESC_E":"Gold, zinc, copper, silver, cadmium","COM_GROU_E":"Precious metals","CITY_E":"Preissac","PROVINCE_E":"Quebec","LATITUDE":48.251600000000003,"LONGITUDE":-78.427999999999997}},{"type":"Feature","id":171,"geometry":{"type":"Point","coordinates":[-78.451722000040789,48.251599998907523]},"properties":{"OBJECTID":171,"OWNER_E":"Agnico Eagle Mines Limited","FAC_TYPE_E":"(U.)","FAC_DESC_E":"Underground","COMMODIT_E":"Au","COM_DESC_E":"Gold","COM_GROU_E":"Precious metals","CITY_E":"Preissac","PROVINCE_E":"Quebec","LATITUDE":48.251600000000003,"LONGITUDE":-78.451722000000004}},{"type":"Feature","id":172,"geometry":{"type":"Point","coordinates":[-78.502000000417169,48.255999999238036]},"properties":{"OBJECTID":172,"OWNER_E":"IAMGOLD Corporation","FAC_TYPE_E":"(U., C.)","FAC_DESC_E":"Underground, concentrator","COMMODIT_E":"Au, Ag","COM_DESC_E":"Gold, Silver","COM_GROU_E":"Precious metals","CITY_E":"Cadillac","PROVINCE_E":"Quebec","LATITUDE":48.256,"LONGITUDE":-78.501999999999995}},{"type":"Feature","id":173,"geometry":{"type":"Point","coordinates":[-79.130560000120539,48.286389998865964]},"properties":{"OBJECTID":173,"OWNER_E":"Abcourt Mines Inc.","FAC_TYPE_E":"(U.)","FAC_DESC_E":"Underground","COMMODIT_E":"Au, Ag","COM_DESC_E":"Gold, Silver","COM_GROU_E":"Precious metals","CITY_E":"Rouyn-Noranda","PROVINCE_E":"Quebec","LATITUDE":48.286389999999997,"LONGITUDE":-79.130560000000003}},{"type":"Feature","id":174,"geometry":{"type":"Point","coordinates":[-79.231306999770638,49.571899998984797]},"properties":{"OBJECTID":174,"OWNER_E":"Hecla Mining Company","FAC_TYPE_E":"(U., C.)","FAC_DESC_E":"Underground, concentrator","COMMODIT_E":"Au, Ag","COM_DESC_E":"Gold, Silver","COM_GROU_E":"Precious metals","CITY_E":"north of La Sarre, Casa Berardi Twp.","PROVINCE_E":"Quebec","LATITUDE":49.571899999999999,"LONGITUDE":-79.231307000000001}},{"type":"Feature","id":175,"geometry":{"type":"Point","coordinates":[-79.717631000304706,50.018142998956762]},"properties":{"OBJECTID":175,"OWNER_E":"Agnico Eagle Mines Limited","FAC_TYPE_E":"(P., C.)","FAC_DESC_E":"Open-pit, concentrator","COMMODIT_E":"Au","COM_DESC_E":"Gold","COM_GROU_E":"Precious metals","CITY_E":"Matagami","PROVINCE_E":"Ontario","LATITUDE":50.018143000000002,"LONGITUDE":-79.717630999999997}},{"type":"Feature","id":176,"geometry":{"type":"Point","coordinates":[-80.07163699978581,48.142527998977513]},"properties":{"OBJECTID":176,"OWNER_E":"Agnico Eagle Mines Limited","FAC_TYPE_E":"(U., C.)","FAC_DESC_E":"Underground, concentrator","COMMODIT_E":"Au, Ag","COM_DESC_E":"Gold, Silver","COM_GROU_E":"Precious metals","CITY_E":"Kirkland Lake area","PROVINCE_E":"Ontario","LATITUDE":48.142527999999999,"LONGITUDE":-80.071636999999996}},{"type":"Feature","id":177,"geometry":{"type":"Point","coordinates":[-80.340814000026,48.534361999139684]},"properties":{"OBJECTID":177,"OWNER_E":"McEwen Mining Inc.","FAC_TYPE_E":"(P., U., C.)","FAC_DESC_E":"Open-pit, underground, concentrator","COMMODIT_E":"Au","COM_DESC_E":"Gold","COM_GROU_E":"Precious metals","CITY_E":"Matheson","PROVINCE_E":"Ontario","LATITUDE":48.534362000000002,"LONGITUDE":-80.340813999999995}},{"type":"Feature","id":178,"geometry":{"type":"Point","coordinates":[-80.674439999708042,47.946669999061349]},"properties":{"OBJECTID":178,"OWNER_E":"Alamos Gold Inc.","FAC_TYPE_E":"(U., C.)","FAC_DESC_E":"Underground, concentrator","COMMODIT_E":"Au","COM_DESC_E":"Gold","COM_GROU_E":"Precious metals","CITY_E":"Kirkland Lake area","PROVINCE_E":"Ontario","LATITUDE":47.946669999999997,"LONGITUDE":-80.674440000000004}},{"type":"Feature","id":179,"geometry":{"type":"Point","coordinates":[-81.108299999927496,48.551899998948038]},"properties":{"OBJECTID":179,"OWNER_E":"Newmont Corporation","FAC_TYPE_E":"(U.)","FAC_DESC_E":"Underground","COMMODIT_E":"Au","COM_DESC_E":"Gold","COM_GROU_E":"Precious metals","CITY_E":"south of Porcupine","PROVINCE_E":"Ontario","LATITUDE":48.551900000000003,"LONGITUDE":-81.1083}},{"type":"Feature","id":180,"geometry":{"type":"Point","coordinates":[-81.177999999853029,48.552999999170254]},"properties":{"OBJECTID":180,"OWNER_E":"Pan American Silver Corp.","FAC_TYPE_E":"(U., C.)","FAC_DESC_E":"Underground, concentrator","COMMODIT_E":"Au","COM_DESC_E":"Gold","COM_GROU_E":"Precious metals","CITY_E":"Timmins","PROVINCE_E":"Ontario","LATITUDE":48.552999999999997,"LONGITUDE":-81.177999999999997}},{"type":"Feature","id":181,"geometry":{"type":"Point","coordinates":[-81.242718999631592,48.463510998891451]},"properties":{"OBJECTID":181,"OWNER_E":"Newmont Corporation","FAC_TYPE_E":"(C.)","FAC_DESC_E":"Concentrator","COMMODIT_E":"Au","COM_DESC_E":"Gold","COM_GROU_E":"Precious metals","CITY_E":"Timmins","PROVINCE_E":"Ontario","LATITUDE":48.463510999999997,"LONGITUDE":-81.242718999999994}},{"type":"Feature","id":182,"geometry":{"type":"Point","coordinates":[-81.31313999998055,48.473299998976564]},"properties":{"OBJECTID":182,"OWNER_E":"Newmont Corporation","FAC_TYPE_E":"(P.)","FAC_DESC_E":"Open-pit","COMMODIT_E":"Au","COM_DESC_E":"Gold","COM_GROU_E":"Precious metals","CITY_E":"Timmins","PROVINCE_E":"Ontario","LATITUDE":48.473300000000002,"LONGITUDE":-81.313140000000004}},{"type":"Feature","id":183,"geometry":{"type":"Point","coordinates":[-81.549825999999442,48.38327499884965]},"properties":{"OBJECTID":183,"OWNER_E":"Pan American Silver Corp.","FAC_TYPE_E":"(U.)","FAC_DESC_E":"Underground","COMMODIT_E":"Au","COM_DESC_E":"Gold","COM_GROU_E":"Precious metals","CITY_E":"Timmins","PROVINCE_E":"Ontario","LATITUDE":48.383274999999998,"LONGITUDE":-81.549825999999996}},{"type":"Feature","id":184,"geometry":{"type":"Point","coordinates":[-83.260981000283635,47.871882999015845]},"properties":{"OBJECTID":184,"OWNER_E":"Newmont Corporation","FAC_TYPE_E":"(P., U.)","FAC_DESC_E":"Open-pit, underground","COMMODIT_E":"Au","COM_DESC_E":"Gold","COM_GROU_E":"Precious metals","CITY_E":"Chapleau","PROVINCE_E":"Ontario","LATITUDE":47.871882999999997,"LONGITUDE":-83.260981000000001}},{"type":"Feature","id":185,"geometry":{"type":"Point","coordinates":[-84.449604000237159,48.285666999161727]},"properties":{"OBJECTID":185,"OWNER_E":"Alamos Gold Inc.","FAC_TYPE_E":"(U., C.)","FAC_DESC_E":"Underground, concentrator","COMMODIT_E":"Au","COM_DESC_E":"Gold","COM_GROU_E":"Precious metals","CITY_E":"Dubreuilville","PROVINCE_E":"Ontario","LATITUDE":48.285666999999997,"LONGITUDE":-84.449603999999994}},{"type":"Feature","id":186,"geometry":{"type":"Point","coordinates":[-85.004010000122761,48.804959999244211]},"properties":{"OBJECTID":186,"OWNER_E":"Silver Lake Resources Ltd.","FAC_TYPE_E":"(U., C.)","FAC_DESC_E":"Underground, concentrator","COMMODIT_E":"Au","COM_DESC_E":"Gold","COM_GROU_E":"Precious metals","CITY_E":"White River","PROVINCE_E":"Ontario","LATITUDE":48.804960000000001,"LONGITUDE":-85.004009999999994}},{"type":"Feature","id":187,"geometry":{"type":"Point","coordinates":[-85.452499999890321,48.110279998973454]},"properties":{"OBJECTID":187,"OWNER_E":"Wesdome Gold Mines Ltd.","FAC_TYPE_E":"(P.)","FAC_DESC_E":"Open-pit","COMMODIT_E":"Au","COM_DESC_E":"Gold","COM_GROU_E":"Precious metals","CITY_E":"Wawa","PROVINCE_E":"Ontario","LATITUDE":48.110280000000003,"LONGITUDE":-85.452500000000001}},{"type":"Feature","id":188,"geometry":{"type":"Point","coordinates":[-85.461899999769429,47.986099999315677]},"properties":{"OBJECTID":188,"OWNER_E":"Wesdome Gold Mines Ltd.","FAC_TYPE_E":"(U., C.)","FAC_DESC_E":"Underground, concentrator","COMMODIT_E":"Au","COM_DESC_E":"Gold","COM_GROU_E":"Precious metals","CITY_E":"Wawa","PROVINCE_E":"Ontario","LATITUDE":47.9861,"LONGITUDE":-85.4619}},{"type":"Feature","id":189,"geometry":{"type":"Point","coordinates":[-85.915979999954402,48.695725999119425]},"properties":{"OBJECTID":189,"OWNER_E":"Barrick Gold Corporation","FAC_TYPE_E":"(P., U., C.)","FAC_DESC_E":"Open-pit, underground, concentrator","COMMODIT_E":"Au","COM_DESC_E":"Gold","COM_GROU_E":"Precious metals","CITY_E":"Marathon","PROVINCE_E":"Ontario","LATITUDE":48.695726000000001,"LONGITUDE":-85.915980000000005}},{"type":"Feature","id":190,"geometry":{"type":"Point","coordinates":[-89.610499999724738,49.169099999344716]},"properties":{"OBJECTID":190,"OWNER_E":"Impala Canada Ltd.","FAC_TYPE_E":"(P., U., C.)","FAC_DESC_E":"Open-pit, underground, concentrator","COMMODIT_E":"PGM, Au, Ni, Cu, Co","COM_DESC_E":"Platinum group metals, gold, nickel, copper, cobalt","COM_GROU_E":"Precious metals","CITY_E":"Thunder Bay","PROVINCE_E":"Ontario","LATITUDE":49.1691,"LONGITUDE":-89.610500000000002}},{"type":"Feature","id":191,"geometry":{"type":"Point","coordinates":[-90.363599999577303,52.612699999176542]},"properties":{"OBJECTID":191,"OWNER_E":"Newmont Corporation","FAC_TYPE_E":"(U., C.)","FAC_DESC_E":"Underground, concentrator","COMMODIT_E":"Au, Ag","COM_DESC_E":"Gold, Silver","COM_GROU_E":"Precious metals","CITY_E":"north of Pickle Lake","PROVINCE_E":"Ontario","LATITUDE":52.612699999999997,"LONGITUDE":-90.363600000000005}},{"type":"Feature","id":192,"geometry":{"type":"Point","coordinates":[-93.73292199994944,51.050556999121525]},"properties":{"OBJECTID":192,"OWNER_E":"Evolution Mining Ltd.","FAC_TYPE_E":"(U., C.)","FAC_DESC_E":"Underground, concentrator","COMMODIT_E":"Au, Ag","COM_DESC_E":"Gold, Silver","COM_GROU_E":"Precious metals","CITY_E":"Balmertown","PROVINCE_E":"Ontario","LATITUDE":51.050556999999998,"LONGITUDE":-93.732922000000002}},{"type":"Feature","id":193,"geometry":{"type":"Point","coordinates":[-93.938470000007129,50.969319998976303]},"properties":{"OBJECTID":193,"OWNER_E":"Pure Gold Mining Inc.","FAC_TYPE_E":"(P., C.)","FAC_DESC_E":"Open-pit, concentrator","COMMODIT_E":"Au","COM_DESC_E":"Gold","COM_GROU_E":"Precious metals","CITY_E":"Red Lake","PROVINCE_E":"Ontario","LATITUDE":50.969320000000003,"LONGITUDE":-93.938469999999995}},{"type":"Feature","id":194,"geometry":{"type":"Point","coordinates":[-94.012000000384162,48.832999998963352]},"properties":{"OBJECTID":194,"OWNER_E":"New Gold Inc.","FAC_TYPE_E":"(P., U., C.)","FAC_DESC_E":"Open-pit, underground, concentrator","COMMODIT_E":"Au, Ag","COM_DESC_E":"Gold, Silver","COM_GROU_E":"Precious metals","CITY_E":"Fort Frances","PROVINCE_E":"Ontario","LATITUDE":48.832999999999998,"LONGITUDE":-94.012}},{"type":"Feature","id":195,"geometry":{"type":"Point","coordinates":[-103.41457099977688,55.667779999018904]},"properties":{"OBJECTID":195,"OWNER_E":"SSR Mining Inc.","FAC_TYPE_E":"(U.)","FAC_DESC_E":"Underground","COMMODIT_E":"Au","COM_DESC_E":"Gold","COM_GROU_E":"Precious metals","CITY_E":"Santoy Lake","PROVINCE_E":"Saskatchewan","LATITUDE":55.66778,"LONGITUDE":-103.414571}},{"type":"Feature","id":196,"geometry":{"type":"Point","coordinates":[-103.62225700009228,55.683771999351443]},"properties":{"OBJECTID":196,"OWNER_E":"SSR Mining Inc.","FAC_TYPE_E":"(C.)","FAC_DESC_E":"Concentrator","COMMODIT_E":"Au","COM_DESC_E":"Gold","COM_GROU_E":"Precious metals","CITY_E":"Laonil Lake","PROVINCE_E":"Saskatchewan","LATITUDE":55.683771999999998,"LONGITUDE":-103.622257}},{"type":"Feature","id":197,"geometry":{"type":"Point","coordinates":[-130.21782999995455,56.475539999307998]},"properties":{"OBJECTID":197,"OWNER_E":"Newcrest Mining Ltd.","FAC_TYPE_E":"(U., C.)","FAC_DESC_E":"Underground, concentrator","COMMODIT_E":"Au, Ag","COM_DESC_E":"Gold, Silver","COM_GROU_E":"Precious metals","CITY_E":"Stewart","PROVINCE_E":"British Columbia","LATITUDE":56.475540000000002,"LONGITUDE":-130.21782999999999}},{"type":"Feature","id":198,"geometry":{"type":"Point","coordinates":[-135.84559999993959,64.032199999205304]},"properties":{"OBJECTID":198,"OWNER_E":"Victoria Gold Corporation","FAC_TYPE_E":"(P., C.)","FAC_DESC_E":"Open-pit, concentrator","COMMODIT_E":"Au","COM_DESC_E":"Gold","COM_GROU_E":"Precious metals","CITY_E":"Mayo","PROVINCE_E":"Yukon","LATITUDE":64.032200000000003,"LONGITUDE":-135.84559999999999}},{"type":"Feature","id":199,"geometry":{"type":"Point","coordinates":[-92.22020600026238,63.031528999087229]},"properties":{"OBJECTID":199,"OWNER_E":"Agnico Eagle Mines Limited","FAC_TYPE_E":"(P., U., C.)","FAC_DESC_E":"Open-pit, underground, concentrator","COMMODIT_E":"Au","COM_DESC_E":"Gold","COM_GROU_E":"Precious metals","CITY_E":"Rankin Inlet","PROVINCE_E":"Nunavut","LATITUDE":63.031528999999999,"LONGITUDE":-92.220206000000005}},{"type":"Feature","id":200,"geometry":{"type":"Point","coordinates":[-96.071312999989175,65.019995599386121]},"properties":{"OBJECTID":200,"OWNER_E":"Agnico Eagle Mines Limited","FAC_TYPE_E":"(C.)","FAC_DESC_E":"Concentrator","COMMODIT_E":"Au","COM_DESC_E":"Gold","COM_GROU_E":"Precious metals","CITY_E":"Baker Lake","PROVINCE_E":"Nunavut","LATITUDE":65.019995600000001,"LONGITUDE":-96.071313000000004}},{"type":"Feature","id":201,"geometry":{"type":"Point","coordinates":[-96.696999999666062,65.414999999455262]},"properties":{"OBJECTID":201,"OWNER_E":"Agnico Eagle Mines Limited","FAC_TYPE_E":"(P., U.)","FAC_DESC_E":"Open-pit, underground","COMMODIT_E":"Au","COM_DESC_E":"Gold","COM_GROU_E":"Precious metals","CITY_E":"Baker Lake","PROVINCE_E":"Nunavut","LATITUDE":65.415000000000006,"LONGITUDE":-96.697000000000003}},{"type":"Feature","id":202,"geometry":{"type":"Point","coordinates":[-135.48330000006899,63.916699999435082]},"properties":{"OBJECTID":202,"OWNER_E":"Hecla Mining Company","FAC_TYPE_E":"(U., C.)","FAC_DESC_E":"Underground, concentrator","COMMODIT_E":"Ag, Zn, Pb","COM_DESC_E":"Silver, zinc, lead","COM_GROU_E":"Base metals and precious metals","CITY_E":"Mayo","PROVINCE_E":"Yukon","LATITUDE":63.916699999999999,"LONGITUDE":-135.48330000000001}},{"type":"Feature","id":203,"geometry":{"type":"Point","coordinates":[-103.83610000036441,58.347199998996402]},"properties":{"OBJECTID":203,"OWNER_E":"Orano Canada Inc.","FAC_TYPE_E":"(C.)","FAC_DESC_E":"Concentrator","COMMODIT_E":"U","COM_DESC_E":"Uranium","COM_GROU_E":"Uranium","CITY_E":"McClean Lake","PROVINCE_E":"Saskatchewan","LATITUDE":58.347200000000001,"LONGITUDE":-103.8361}},{"type":"Feature","id":204,"geometry":{"type":"Point","coordinates":[-104.54122999997759,58.068189999058205]},"properties":{"OBJECTID":204,"OWNER_E":"Cameco Corporation","FAC_TYPE_E":"(U.)","FAC_DESC_E":"Underground","COMMODIT_E":"U","COM_DESC_E":"Uranium","COM_GROU_E":"Uranium","CITY_E":"Waterbury Lake","PROVINCE_E":"Saskatchewan","LATITUDE":58.068190000000001,"LONGITUDE":-104.54123}},{"type":"Feature","id":205,"geometry":{"type":"Point","coordinates":[-105.05299999994818,57.76369999928334]},"properties":{"OBJECTID":205,"OWNER_E":"Cameco Corporation","FAC_TYPE_E":"(U.)","FAC_DESC_E":"Underground","COMMODIT_E":"U","COM_DESC_E":"Uranium","COM_GROU_E":"Uranium","CITY_E":"north of Key Lake","PROVINCE_E":"Saskatchewan","LATITUDE":57.7637,"LONGITUDE":-105.053}},{"type":"Feature","id":206,"geometry":{"type":"Point","coordinates":[-105.64699999966786,57.206999998945712]},"properties":{"OBJECTID":206,"OWNER_E":"Cameco Corporation","FAC_TYPE_E":"(C.)","FAC_DESC_E":"Concentrator","COMMODIT_E":"U","COM_DESC_E":"Uranium","COM_GROU_E":"Uranium","CITY_E":"north of Highrock Lake","PROVINCE_E":"Saskatchewan","LATITUDE":57.207000000000001,"LONGITUDE":-105.64700000000001}}]
}